data = [{"0":{"Total_Rides":477,"Start_Station":18,"End_Station":1,"Start_Station_Name":"18 REFORMA-RIO RHIN","Start_Station_Lat":19.42888,"Start_Station_Lon":-99.164176,"Start_Colonia":"Cuauhtemoc","End_Station_Name":"1 RIO SENA-RIO BALSAS","End_Station_Lat":19.4335714,"End_Station_Lon":-99.1678091,"End_Colonia":"Cuauhtemoc"},"1":{"Total_Rides":434,"Start_Station":211,"End_Station":217,"Start_Station_Name":"211 NEWTON-HORACIO","Start_Station_Lat":19.433607,"Start_Station_Lon":-99.188528,"Start_Colonia":"Polanco","End_Station_Name":"217 EULER-AV. HORACIO ","End_Station_Lat":19.432888,"End_Station_Lon":-99.183605,"End_Colonia":"Polanco"},"2":{"Total_Rides":427,"Start_Station":1,"End_Station":18,"Start_Station_Name":"1 RIO SENA-RIO BALSAS","Start_Station_Lat":19.4335714,"Start_Station_Lon":-99.1678091,"Start_Colonia":"Cuauhtemoc","End_Station_Name":"18 REFORMA-RIO RHIN","End_Station_Lat":19.42888,"End_Station_Lon":-99.164176,"End_Colonia":"Cuauhtemoc"},"3":{"Total_Rides":342,"Start_Station":174,"End_Station":183,"Start_Station_Name":"174 JOAQU\u00cdN GARCIA-IGNACIO MANUEL ALTAMIRANO","Start_Station_Lat":19.44111,"Start_Station_Lon":-99.16164,"Start_Colonia":"San Rafael","End_Station_Name":"183 GABINO BARRERA-GUILLERMO PRIETO","End_Station_Lat":19.43767,"End_Station_Lon":-99.16402,"End_Colonia":"San Rafael"},"4":{"Total_Rides":335,"Start_Station":41,"End_Station":3,"Start_Station_Name":"41 REFORMA-AV. DE LA REPUBLICA","Start_Station_Lat":19.435637,"Start_Station_Lon":-99.150137,"Start_Colonia":"Tabacalera","End_Station_Name":"3 REFORMA-INSURGENTES","End_Station_Lat":19.431655,"End_Station_Lon":-99.158668,"End_Colonia":"Juarez"},"5":{"Total_Rides":328,"Start_Station":23,"End_Station":27,"Start_Station_Name":"23 REFORMA-PRAGA","Start_Station_Lat":19.42517,"Start_Station_Lon":-99.17105,"Start_Colonia":"Juarez","End_Station_Name":"27 REFORMA-HAVRE","End_Station_Lat":19.429115,"End_Station_Lon":-99.162614,"End_Colonia":"Juarez"},"6":{"Total_Rides":318,"Start_Station":183,"End_Station":174,"Start_Station_Name":"183 GABINO BARRERA-GUILLERMO PRIETO","Start_Station_Lat":19.43767,"Start_Station_Lon":-99.16402,"Start_Colonia":"San Rafael","End_Station_Name":"174 JOAQU\u00cdN GARCIA-IGNACIO MANUEL ALTAMIRANO","End_Station_Lat":19.44111,"End_Station_Lon":-99.16164,"End_Colonia":"San Rafael"},"7":{"Total_Rides":309,"Start_Station":61,"End_Station":61,"Start_Station_Name":"61 AVENIDA MEXICO-SONORA","Start_Station_Lat":19.413742,"Start_Station_Lon":-99.169525,"Start_Colonia":"Hipodromo","End_Station_Name":"61 AVENIDA MEXICO-SONORA","End_Station_Lat":19.413742,"End_Station_Lon":-99.169525,"End_Colonia":"Hipodromo"},"8":{"Total_Rides":305,"Start_Station":217,"End_Station":211,"Start_Station_Name":"217 EULER-AV. HORACIO ","Start_Station_Lat":19.432888,"Start_Station_Lon":-99.183605,"Start_Colonia":"Polanco","End_Station_Name":"211 NEWTON-HORACIO","End_Station_Lat":19.433607,"End_Station_Lon":-99.188528,"End_Colonia":"Polanco"},"9":{"Total_Rides":298,"Start_Station":34,"End_Station":1,"Start_Station_Name":"34 LIVERPOOL-GENOVA","Start_Station_Lat":19.424725,"Start_Station_Lon":-99.163331,"Start_Colonia":"Juarez","End_Station_Name":"1 RIO SENA-RIO BALSAS","End_Station_Lat":19.4335714,"End_Station_Lon":-99.1678091,"End_Colonia":"Cuauhtemoc"},"10":{"Total_Rides":292,"Start_Station":36,"End_Station":53,"Start_Station_Name":"36 PUEBLA-VERACRUZ","Start_Station_Lat":19.419725,"Start_Station_Lon":-99.175778,"Start_Colonia":"Piedad Narvarte","End_Station_Name":"53 FERNANDO MONTES DE OCA-TULA","End_Station_Lat":19.414773,"End_Station_Lon":-99.178433,"End_Colonia":"Condesa"},"11":{"Total_Rides":291,"Start_Station":1,"End_Station":35,"Start_Station_Name":"1 RIO SENA-RIO BALSAS","Start_Station_Lat":19.4335714,"Start_Station_Lon":-99.1678091,"Start_Colonia":"Cuauhtemoc","End_Station_Name":"35 LIVERPOOL-GENOVA","End_Station_Lat":19.424674,"End_Station_Lon":-99.163292,"End_Colonia":"Juarez"},"12":{"Total_Rides":290,"Start_Station":21,"End_Station":27,"Start_Station_Name":"21 REFORMA-DUBLIN","Start_Station_Lat":19.42472,"Start_Station_Lon":-99.17206,"Start_Colonia":"Juarez","End_Station_Name":"27 REFORMA-HAVRE","End_Station_Lat":19.429115,"End_Station_Lon":-99.162614,"End_Colonia":"Juarez"},"13":{"Total_Rides":281,"Start_Station":70,"End_Station":70,"Start_Station_Name":"70 PARQUE MEXICO-MICHOACAN","Start_Station_Lat":19.411272,"Start_Station_Lon":-99.169718,"Start_Colonia":"Hipodromo","End_Station_Name":"70 PARQUE MEXICO-MICHOACAN","End_Station_Lat":19.411272,"End_Station_Lon":-99.169718,"End_Colonia":"Hipodromo"},"14":{"Total_Rides":281,"Start_Station":27,"End_Station":43,"Start_Station_Name":"27 REFORMA-HAVRE","Start_Station_Lat":19.429115,"Start_Station_Lon":-99.162614,"Start_Colonia":"Juarez","End_Station_Name":"43 JUAREZ-REVILLAGIGEDO","End_Station_Lat":19.435228,"End_Station_Lon":-99.146063,"End_Colonia":"Centro"},"15":{"Total_Rides":278,"Start_Station":27,"End_Station":29,"Start_Station_Name":"27 REFORMA-HAVRE","Start_Station_Lat":19.429115,"Start_Station_Lon":-99.162614,"Start_Colonia":"Juarez","End_Station_Name":"29 REFORMA-BUCARELI","End_Station_Lat":19.434913,"End_Station_Lon":-99.149939,"End_Colonia":"Centro"},"16":{"Total_Rides":274,"Start_Station":35,"End_Station":1,"Start_Station_Name":"35 LIVERPOOL-GENOVA","Start_Station_Lat":19.424674,"Start_Station_Lon":-99.163292,"Start_Colonia":"Juarez","End_Station_Name":"1 RIO SENA-RIO BALSAS","End_Station_Lat":19.4335714,"End_Station_Lon":-99.1678091,"End_Colonia":"Cuauhtemoc"},"17":{"Total_Rides":268,"Start_Station":27,"End_Station":1,"Start_Station_Name":"27 REFORMA-HAVRE","Start_Station_Lat":19.429115,"Start_Station_Lon":-99.162614,"Start_Colonia":"Juarez","End_Station_Name":"1 RIO SENA-RIO BALSAS","End_Station_Lat":19.4335714,"End_Station_Lon":-99.1678091,"End_Colonia":"Cuauhtemoc"},"18":{"Total_Rides":265,"Start_Station":41,"End_Station":19,"Start_Station_Name":"41 REFORMA-AV. DE LA REPUBLICA","Start_Station_Lat":19.435637,"Start_Station_Lon":-99.150137,"Start_Colonia":"Tabacalera","End_Station_Name":"19 REFORMA-RIO RHIN","End_Station_Lat":19.429241,"End_Station_Lon":-99.163377,"End_Colonia":"Cuauhtemoc"},"19":{"Total_Rides":259,"Start_Station":1,"End_Station":27,"Start_Station_Name":"1 RIO SENA-RIO BALSAS","Start_Station_Lat":19.4335714,"Start_Station_Lon":-99.1678091,"Start_Colonia":"Cuauhtemoc","End_Station_Name":"27 REFORMA-HAVRE","End_Station_Lat":19.429115,"End_Station_Lon":-99.162614,"End_Colonia":"Juarez"},"20":{"Total_Rides":257,"Start_Station":85,"End_Station":174,"Start_Station_Name":"85 ROSAS MORENO-SULLIVAN","Start_Station_Lat":19.43425,"Start_Station_Lon":-99.162508,"Start_Colonia":"San Rafael","End_Station_Name":"174 JOAQU\u00cdN GARCIA-IGNACIO MANUEL ALTAMIRANO","End_Station_Lat":19.44111,"End_Station_Lon":-99.16164,"End_Colonia":"San Rafael"},"21":{"Total_Rides":250,"Start_Station":53,"End_Station":36,"Start_Station_Name":"53 FERNANDO MONTES DE OCA-TULA","Start_Station_Lat":19.414773,"Start_Station_Lon":-99.178433,"Start_Colonia":"Condesa","End_Station_Name":"36 PUEBLA-VERACRUZ","End_Station_Lat":19.419725,"End_Station_Lon":-99.175778,"End_Colonia":"Piedad Narvarte"},"22":{"Total_Rides":250,"Start_Station":27,"End_Station":27,"Start_Station_Name":"27 REFORMA-HAVRE","Start_Station_Lat":19.429115,"Start_Station_Lon":-99.162614,"Start_Colonia":"Juarez","End_Station_Name":"27 REFORMA-HAVRE","End_Station_Lat":19.429115,"End_Station_Lon":-99.162614,"End_Colonia":"Juarez"},"23":{"Total_Rides":248,"Start_Station":208,"End_Station":206,"Start_Station_Name":"208 HESIODO-LAMARTINE ","Start_Station_Lat":19.434182,"Start_Station_Lon":-99.189835,"Start_Colonia":"Polanco","End_Station_Name":"206 MOLIERE-HOMERO ","End_Station_Lat":19.435798,"End_Station_Lon":-99.201419,"End_Colonia":"Polanco"},"24":{"Total_Rides":242,"Start_Station":165,"End_Station":163,"Start_Station_Name":"165 BAJ\u00cdO-EJE 2 PTE. MONTERREY","Start_Station_Lat":19.404268,"Start_Station_Lon":-99.160503,"Start_Colonia":"Roma Sur","End_Station_Name":"163 TOLUCA-BAJ\u00cdO","End_Station_Lat":19.405246,"End_Station_Lon":-99.156431,"End_Colonia":"Roma Sur"},"25":{"Total_Rides":238,"Start_Station":24,"End_Station":27,"Start_Station_Name":"24 REFORMA-VARSOVIA","Start_Station_Lat":19.42647,"Start_Station_Lon":-99.16822,"Start_Colonia":"Juarez","End_Station_Name":"27 REFORMA-HAVRE","End_Station_Lat":19.429115,"End_Station_Lon":-99.162614,"End_Colonia":"Juarez"},"26":{"Total_Rides":234,"Start_Station":206,"End_Station":208,"Start_Station_Name":"206 MOLIERE-HOMERO ","Start_Station_Lat":19.435798,"Start_Station_Lon":-99.201419,"Start_Colonia":"Polanco","End_Station_Name":"208 HESIODO-LAMARTINE ","End_Station_Lat":19.434182,"End_Station_Lon":-99.189835,"End_Colonia":"Polanco"},"27":{"Total_Rides":231,"Start_Station":208,"End_Station":242,"Start_Station_Name":"208 HESIODO-LAMARTINE ","Start_Station_Lat":19.434182,"Start_Station_Lon":-99.189835,"Start_Colonia":"Polanco","End_Station_Name":"242 MIGUEL DE CERVANTES SAAVEDRA-PROL MOLIERE ","End_Station_Lat":19.440344,"End_Station_Lon":-99.20105,"End_Colonia":"Granada"},"28":{"Total_Rides":228,"Start_Station":151,"End_Station":158,"Start_Station_Name":"151 CAMPECHE-TONAL\u00c1","Start_Station_Lat":19.410529,"Start_Station_Lon":-99.160873,"Start_Colonia":"Roma Sur","End_Station_Name":"158 HUATABAMPO-EJE 1PTE. CUAUHT\u00c9MOC","End_Station_Lat":19.407447,"End_Station_Lon":-99.155717,"End_Colonia":"Roma Sur"},"29":{"Total_Rides":225,"Start_Station":84,"End_Station":71,"Start_Station_Name":"84 CHILPANCINGO-TLAXCALA","Start_Station_Lat":19.40702,"Start_Station_Lon":-99.169587,"Start_Colonia":"Hipodromo","End_Station_Name":"71 AMSTERDAM-MICHOACAN","End_Station_Lat":19.411423,"End_Station_Lon":-99.171351,"End_Colonia":"Hipodromo"},"30":{"Total_Rides":224,"Start_Station":84,"End_Station":63,"Start_Station_Name":"84 CHILPANCINGO-TLAXCALA","Start_Station_Lat":19.40702,"Start_Station_Lon":-99.169587,"Start_Colonia":"Hipodromo","End_Station_Name":"63 NUEVO LEON- LAREDO","End_Station_Lat":19.413681,"End_Station_Lon":-99.171531,"End_Colonia":"Condesa"},"31":{"Total_Rides":224,"Start_Station":270,"End_Station":266,"Start_Station_Name":"270 DE LA REPUBLICA-PONCIANO ARRIAGA ","Start_Station_Lat":19.43676,"Start_Station_Lon":-99.15387,"Start_Colonia":"Tabacalera","End_Station_Name":"266 AV. JES\u00daS GARCIA-CARLOS J. MENESES ","End_Station_Lat":19.444031,"End_Station_Lon":-99.152187,"End_Colonia":"Buenavista"},"32":{"Total_Rides":221,"Start_Station":27,"End_Station":41,"Start_Station_Name":"27 REFORMA-HAVRE","Start_Station_Lat":19.429115,"Start_Station_Lon":-99.162614,"Start_Colonia":"Juarez","End_Station_Name":"41 REFORMA-AV. DE LA REPUBLICA","End_Station_Lat":19.435637,"End_Station_Lon":-99.150137,"End_Colonia":"Tabacalera"},"33":{"Total_Rides":218,"Start_Station":174,"End_Station":85,"Start_Station_Name":"174 JOAQU\u00cdN GARCIA-IGNACIO MANUEL ALTAMIRANO","Start_Station_Lat":19.44111,"Start_Station_Lon":-99.16164,"Start_Colonia":"San Rafael","End_Station_Name":"85 ROSAS MORENO-SULLIVAN","End_Station_Lat":19.43425,"End_Station_Lon":-99.162508,"End_Colonia":"San Rafael"},"34":{"Total_Rides":217,"Start_Station":208,"End_Station":197,"Start_Station_Name":"208 HESIODO-LAMARTINE ","Start_Station_Lat":19.434182,"Start_Station_Lon":-99.189835,"Start_Colonia":"Polanco","End_Station_Name":"197 MIGUEL DE CERVANTES-FC DE CUERNAVACA","End_Station_Lat":19.440077,"End_Station_Lon":-99.204316,"End_Colonia":"Granada"},"35":{"Total_Rides":215,"Start_Station":84,"End_Station":61,"Start_Station_Name":"84 CHILPANCINGO-TLAXCALA","Start_Station_Lat":19.40702,"Start_Station_Lon":-99.169587,"Start_Colonia":"Hipodromo","End_Station_Name":"61 AVENIDA MEXICO-SONORA","End_Station_Lat":19.413742,"End_Station_Lon":-99.169525,"End_Colonia":"Hipodromo"},"36":{"Total_Rides":214,"Start_Station":25,"End_Station":27,"Start_Station_Name":"25 REFORMA-ESTOCOLMO","Start_Station_Lat":19.427317,"Start_Station_Lon":-99.166662,"Start_Colonia":"Juarez","End_Station_Name":"27 REFORMA-HAVRE","End_Station_Lat":19.429115,"End_Station_Lon":-99.162614,"End_Colonia":"Juarez"},"37":{"Total_Rides":214,"Start_Station":41,"End_Station":10,"Start_Station_Name":"41 REFORMA-AV. DE LA REPUBLICA","Start_Station_Lat":19.435637,"Start_Station_Lon":-99.150137,"Start_Colonia":"Tabacalera","End_Station_Name":"10 REFORMA-RAMIREZ","End_Station_Lat":19.433321,"End_Station_Lon":-99.154752,"End_Colonia":"Tabacalera"},"38":{"Total_Rides":213,"Start_Station":77,"End_Station":68,"Start_Station_Name":"77 CHOAPAN-TAMAULIPAS","Start_Station_Lat":19.406765,"Start_Station_Lon":-99.178321,"Start_Colonia":"Hipodromo","End_Station_Name":"68 TAMAULIPAS-MICHOACAN","End_Station_Lat":19.411556,"End_Station_Lon":-99.17406,"End_Colonia":"Condesa"},"39":{"Total_Rides":213,"Start_Station":32,"End_Station":4,"Start_Station_Name":"32 LONDRES-SEVILLA","Start_Station_Lat":19.422705,"Start_Station_Lon":-99.169922,"Start_Colonia":"Juarez","End_Station_Name":"4 RIO NILO-RIO PANUCO","End_Station_Lat":19.428309,"End_Station_Lon":-99.171713,"End_Colonia":"Cuauhtemoc"},"40":{"Total_Rides":212,"Start_Station":1,"End_Station":1,"Start_Station_Name":"1 RIO SENA-RIO BALSAS","Start_Station_Lat":19.4335714,"Start_Station_Lon":-99.1678091,"Start_Colonia":"Cuauhtemoc","End_Station_Name":"1 RIO SENA-RIO BALSAS","End_Station_Lat":19.4335714,"End_Station_Lon":-99.1678091,"End_Colonia":"Cuauhtemoc"},"41":{"Total_Rides":211,"Start_Station":15,"End_Station":27,"Start_Station_Name":"15 REFORMA-RIO MISSISSIPPI","Start_Station_Lat":19.425477,"Start_Station_Lon":-99.171567,"Start_Colonia":"Cuauhtemoc","End_Station_Name":"27 REFORMA-HAVRE","End_Station_Lat":19.429115,"End_Station_Lon":-99.162614,"End_Colonia":"Juarez"},"42":{"Total_Rides":210,"Start_Station":27,"End_Station":15,"Start_Station_Name":"27 REFORMA-HAVRE","Start_Station_Lat":19.429115,"Start_Station_Lon":-99.162614,"Start_Colonia":"Juarez","End_Station_Name":"15 REFORMA-RIO MISSISSIPPI","End_Station_Lat":19.425477,"End_Station_Lon":-99.171567,"End_Colonia":"Cuauhtemoc"},"43":{"Total_Rides":208,"Start_Station":135,"End_Station":136,"Start_Station_Name":"135 \u00c1LVARO OBREG\u00d3N-MORELIA","Start_Station_Lat":19.419225,"Start_Station_Lon":-99.155099,"Start_Colonia":"Roma Norte","End_Station_Name":"136 \u00c1LVARO OBREG\u00d3N-TONAL\u00c1","End_Station_Lat":19.417715,"End_Station_Lon":-99.162729,"End_Colonia":"Roma Norte"},"44":{"Total_Rides":207,"Start_Station":64,"End_Station":45,"Start_Station_Name":"64 SONORA-AMSTERDAM","Start_Station_Lat":19.412877,"Start_Station_Lon":-99.166986,"Start_Colonia":"Hipodromo","End_Station_Name":"45 DURANGO-SONORA","End_Station_Lat":19.418649,"End_Station_Lon":-99.172127,"End_Colonia":"Roma Norte"},"45":{"Total_Rides":205,"Start_Station":84,"End_Station":64,"Start_Station_Name":"84 CHILPANCINGO-TLAXCALA","Start_Station_Lat":19.40702,"Start_Station_Lon":-99.169587,"Start_Colonia":"Hipodromo","End_Station_Name":"64 SONORA-AMSTERDAM","End_Station_Lat":19.412877,"End_Station_Lon":-99.166986,"End_Colonia":"Hipodromo"},"46":{"Total_Rides":205,"Start_Station":73,"End_Station":77,"Start_Station_Name":"73 CAMPECHE-TAMAULIPAS","Start_Station_Lat":19.410245,"Start_Station_Lon":-99.175612,"Start_Colonia":"Hipodromo Condesa","End_Station_Name":"77 CHOAPAN-TAMAULIPAS","End_Station_Lat":19.406765,"End_Station_Lon":-99.178321,"End_Colonia":"Hipodromo"},"47":{"Total_Rides":205,"Start_Station":1,"End_Station":86,"Start_Station_Name":"1 RIO SENA-RIO BALSAS","Start_Station_Lat":19.4335714,"Start_Station_Lon":-99.1678091,"Start_Colonia":"Cuauhtemoc","End_Station_Name":"86 SULLIVAN-INSURGENTES","End_Station_Lat":19.432378,"End_Station_Lon":-99.159077,"End_Colonia":"San Rafael"},"48":{"Total_Rides":204,"Start_Station":28,"End_Station":27,"Start_Station_Name":"28 TOLEDO-TOKIO","Start_Station_Lat":19.423542,"Start_Station_Lon":-99.172494,"Start_Colonia":"Juarez","End_Station_Name":"27 REFORMA-HAVRE","End_Station_Lat":19.429115,"End_Station_Lon":-99.162614,"End_Colonia":"Juarez"},"49":{"Total_Rides":204,"Start_Station":84,"End_Station":59,"Start_Station_Name":"84 CHILPANCINGO-TLAXCALA","Start_Station_Lat":19.40702,"Start_Station_Lon":-99.169587,"Start_Colonia":"Hipodromo","End_Station_Name":"59 POPOCATEPETL-AMSTERDAM","End_Station_Lat":19.415121,"End_Station_Lon":-99.166661,"End_Colonia":"Hipodromo"},"50":{"Total_Rides":201,"Start_Station":41,"End_Station":20,"Start_Station_Name":"41 REFORMA-AV. DE LA REPUBLICA","Start_Station_Lat":19.435637,"Start_Station_Lon":-99.150137,"Start_Colonia":"Tabacalera","End_Station_Name":"20 REFORMA-RIO TAMESIS","End_Station_Lat":19.430964,"End_Station_Lon":-99.160206,"End_Colonia":"Cuauhtemoc"},"51":{"Total_Rides":199,"Start_Station":41,"End_Station":18,"Start_Station_Name":"41 REFORMA-AV. DE LA REPUBLICA","Start_Station_Lat":19.435637,"Start_Station_Lon":-99.150137,"Start_Colonia":"Tabacalera","End_Station_Name":"18 REFORMA-RIO RHIN","End_Station_Lat":19.42888,"End_Station_Lon":-99.164176,"End_Colonia":"Cuauhtemoc"},"52":{"Total_Rides":198,"Start_Station":197,"End_Station":208,"Start_Station_Name":"197 MIGUEL DE CERVANTES-FC DE CUERNAVACA","Start_Station_Lat":19.440077,"Start_Station_Lon":-99.204316,"Start_Colonia":"Granada","End_Station_Name":"208 HESIODO-LAMARTINE ","End_Station_Lat":19.434182,"End_Station_Lon":-99.189835,"End_Colonia":"Polanco"},"53":{"Total_Rides":197,"Start_Station":256,"End_Station":183,"Start_Station_Name":"256 G\u00d3MEZ FAR\u00cdAS-SADI CARNOT ","Start_Station_Lat":19.4372,"Start_Station_Lon":-99.15816,"Start_Colonia":"San Rafael","End_Station_Name":"183 GABINO BARRERA-GUILLERMO PRIETO","End_Station_Lat":19.43767,"End_Station_Lon":-99.16402,"End_Colonia":"San Rafael"},"54":{"Total_Rides":195,"Start_Station":84,"End_Station":74,"Start_Station_Name":"84 CHILPANCINGO-TLAXCALA","Start_Station_Lat":19.40702,"Start_Station_Lon":-99.169587,"Start_Colonia":"Hipodromo","End_Station_Name":"74 NUEVO LEON-OZULAMA","End_Station_Lat":19.410343,"End_Station_Lon":-99.172831,"End_Colonia":"Hipodromo"},"55":{"Total_Rides":194,"Start_Station":158,"End_Station":141,"Start_Station_Name":"158 HUATABAMPO-EJE 1PTE. CUAUHT\u00c9MOC","Start_Station_Lat":19.407447,"Start_Station_Lon":-99.155717,"Start_Colonia":"Roma Sur","End_Station_Name":"141 ZACATECAS-LUIS CABRERA","End_Station_Lat":19.415905,"End_Station_Lon":-99.15954,"End_Colonia":"Roma Norte"},"56":{"Total_Rides":191,"Start_Station":77,"End_Station":73,"Start_Station_Name":"77 CHOAPAN-TAMAULIPAS","Start_Station_Lat":19.406765,"Start_Station_Lon":-99.178321,"Start_Colonia":"Hipodromo","End_Station_Name":"73 CAMPECHE-TAMAULIPAS","End_Station_Lat":19.410245,"End_Station_Lon":-99.175612,"End_Colonia":"Hipodromo Condesa"},"57":{"Total_Rides":191,"Start_Station":77,"End_Station":66,"Start_Station_Name":"77 CHOAPAN-TAMAULIPAS","Start_Station_Lat":19.406765,"Start_Station_Lon":-99.178321,"Start_Colonia":"Hipodromo","End_Station_Name":"66 MAZATLAN-FRANCISCO MARQUEZ","End_Station_Lat":19.411402,"End_Station_Lon":-99.178666,"End_Colonia":"Hipodromo Condesa"},"58":{"Total_Rides":190,"Start_Station":57,"End_Station":36,"Start_Station_Name":"57 CUERNAVACA-JUAN ESCUTIA","Start_Station_Lat":19.414903,"Start_Station_Lon":-99.17495,"Start_Colonia":"Condesa","End_Station_Name":"36 PUEBLA-VERACRUZ","End_Station_Lat":19.419725,"End_Station_Lon":-99.175778,"End_Colonia":"Piedad Narvarte"},"59":{"Total_Rides":188,"Start_Station":7,"End_Station":7,"Start_Station_Name":"7 RIO ELBA-RIO LERMA","Start_Station_Lat":19.425468,"Start_Station_Lon":-99.175166,"Start_Colonia":"Cuauhtemoc","End_Station_Name":"7 RIO ELBA-RIO LERMA","End_Station_Lat":19.425468,"End_Station_Lon":-99.175166,"End_Colonia":"Cuauhtemoc"},"60":{"Total_Rides":187,"Start_Station":22,"End_Station":27,"Start_Station_Name":"22 REFORMA-MANCHESTER","Start_Station_Lat":19.424375,"Start_Station_Lon":-99.172575,"Start_Colonia":"Juarez","End_Station_Name":"27 REFORMA-HAVRE","End_Station_Lat":19.429115,"End_Station_Lon":-99.162614,"End_Colonia":"Juarez"},"61":{"Total_Rides":187,"Start_Station":174,"End_Station":257,"Start_Station_Name":"174 JOAQU\u00cdN GARCIA-IGNACIO MANUEL ALTAMIRANO","Start_Station_Lat":19.44111,"Start_Station_Lon":-99.16164,"Start_Colonia":"San Rafael","End_Station_Name":"E257 MANUEL MARIA CONTRERAS-VILLALONGIN ","End_Station_Lat":19.4338,"End_Station_Lon":-99.16622,"End_Colonia":"Cuauhtemoc"},"62":{"Total_Rides":186,"Start_Station":41,"End_Station":17,"Start_Station_Name":"41 REFORMA-AV. DE LA REPUBLICA","Start_Station_Lat":19.435637,"Start_Station_Lon":-99.150137,"Start_Colonia":"Tabacalera","End_Station_Name":"17 REFORMA-RIO TIBER","End_Station_Lat":19.427501,"End_Station_Lon":-99.167125,"End_Colonia":"Cuauhtemoc"},"63":{"Total_Rides":186,"Start_Station":237,"End_Station":236,"Start_Station_Name":"237 ANDR\u00c9S BELLO-ELLIOT ","Start_Station_Lat":19.426744,"Start_Station_Lon":-99.193986,"Start_Colonia":"Polanco","End_Station_Name":"236 CAMPOS ELISEOS-MOLIERE ","End_Station_Lat":19.42944,"End_Station_Lon":-99.20243,"End_Colonia":"Polanco"},"64":{"Total_Rides":186,"Start_Station":158,"End_Station":151,"Start_Station_Name":"158 HUATABAMPO-EJE 1PTE. CUAUHT\u00c9MOC","Start_Station_Lat":19.407447,"Start_Station_Lon":-99.155717,"Start_Colonia":"Roma Sur","End_Station_Name":"151 CAMPECHE-TONAL\u00c1","End_Station_Lat":19.410529,"End_Station_Lon":-99.160873,"End_Colonia":"Roma Sur"},"65":{"Total_Rides":184,"Start_Station":17,"End_Station":35,"Start_Station_Name":"17 REFORMA-RIO TIBER","Start_Station_Lat":19.427501,"Start_Station_Lon":-99.167125,"Start_Colonia":"Cuauhtemoc","End_Station_Name":"35 LIVERPOOL-GENOVA","End_Station_Lat":19.424674,"End_Station_Lon":-99.163292,"End_Colonia":"Juarez"},"66":{"Total_Rides":184,"Start_Station":8,"End_Station":29,"Start_Station_Name":"8 REFORMA-GENERAL PRIM","Start_Station_Lat":19.431141,"Start_Station_Lon":-99.158317,"Start_Colonia":"Juarez","End_Station_Name":"29 REFORMA-BUCARELI","End_Station_Lat":19.434913,"End_Station_Lon":-99.149939,"End_Colonia":"Centro"},"67":{"Total_Rides":182,"Start_Station":45,"End_Station":64,"Start_Station_Name":"45 DURANGO-SONORA","Start_Station_Lat":19.418649,"Start_Station_Lon":-99.172127,"Start_Colonia":"Roma Norte","End_Station_Name":"64 SONORA-AMSTERDAM","End_Station_Lat":19.412877,"End_Station_Lon":-99.166986,"End_Colonia":"Hipodromo"},"68":{"Total_Rides":182,"Start_Station":242,"End_Station":208,"Start_Station_Name":"242 MIGUEL DE CERVANTES SAAVEDRA-PROL MOLIERE ","Start_Station_Lat":19.440344,"Start_Station_Lon":-99.20105,"Start_Colonia":"Granada","End_Station_Name":"208 HESIODO-LAMARTINE ","End_Station_Lat":19.434182,"End_Station_Lon":-99.189835,"End_Colonia":"Polanco"},"69":{"Total_Rides":180,"Start_Station":35,"End_Station":17,"Start_Station_Name":"35 LIVERPOOL-GENOVA","Start_Station_Lat":19.424674,"Start_Station_Lon":-99.163292,"Start_Colonia":"Juarez","End_Station_Name":"17 REFORMA-RIO TIBER","End_Station_Lat":19.427501,"End_Station_Lon":-99.167125,"End_Colonia":"Cuauhtemoc"},"70":{"Total_Rides":179,"Start_Station":18,"End_Station":15,"Start_Station_Name":"18 REFORMA-RIO RHIN","Start_Station_Lat":19.42888,"Start_Station_Lon":-99.164176,"Start_Colonia":"Cuauhtemoc","End_Station_Name":"15 REFORMA-RIO MISSISSIPPI","End_Station_Lat":19.425477,"End_Station_Lon":-99.171567,"End_Colonia":"Cuauhtemoc"},"71":{"Total_Rides":179,"Start_Station":17,"End_Station":27,"Start_Station_Name":"17 REFORMA-RIO TIBER","Start_Station_Lat":19.427501,"Start_Station_Lon":-99.167125,"Start_Colonia":"Cuauhtemoc","End_Station_Name":"27 REFORMA-HAVRE","End_Station_Lat":19.429115,"End_Station_Lon":-99.162614,"End_Colonia":"Juarez"},"72":{"Total_Rides":179,"Start_Station":66,"End_Station":77,"Start_Station_Name":"66 MAZATLAN-FRANCISCO MARQUEZ","Start_Station_Lat":19.411402,"Start_Station_Lon":-99.178666,"Start_Colonia":"Hipodromo Condesa","End_Station_Name":"77 CHOAPAN-TAMAULIPAS","End_Station_Lat":19.406765,"End_Station_Lon":-99.178321,"End_Colonia":"Hipodromo"},"73":{"Total_Rides":179,"Start_Station":43,"End_Station":43,"Start_Station_Name":"43 JUAREZ-REVILLAGIGEDO","Start_Station_Lat":19.435228,"Start_Station_Lon":-99.146063,"Start_Colonia":"Centro","End_Station_Name":"43 JUAREZ-REVILLAGIGEDO","End_Station_Lat":19.435228,"End_Station_Lon":-99.146063,"End_Colonia":"Centro"},"74":{"Total_Rides":178,"Start_Station":18,"End_Station":14,"Start_Station_Name":"18 REFORMA-RIO RHIN","Start_Station_Lat":19.42888,"Start_Station_Lon":-99.164176,"Start_Colonia":"Cuauhtemoc","End_Station_Name":"14 REFORMA-RIO DE PLATA","End_Station_Lat":19.424768,"End_Station_Lon":-99.173261,"End_Colonia":"Cuauhtemoc"},"75":{"Total_Rides":175,"Start_Station":1,"End_Station":34,"Start_Station_Name":"1 RIO SENA-RIO BALSAS","Start_Station_Lat":19.4335714,"Start_Station_Lon":-99.1678091,"Start_Colonia":"Cuauhtemoc","End_Station_Name":"34 LIVERPOOL-GENOVA","End_Station_Lat":19.424725,"End_Station_Lon":-99.163331,"End_Colonia":"Juarez"},"76":{"Total_Rides":175,"Start_Station":1,"End_Station":9,"Start_Station_Name":"1 RIO SENA-RIO BALSAS","Start_Station_Lat":19.4335714,"Start_Station_Lon":-99.1678091,"Start_Colonia":"Cuauhtemoc","End_Station_Name":"9 RIO GUADALQUIVIR-RIO LERMA","End_Station_Lat":19.428009,"End_Station_Lon":-99.169918,"End_Colonia":"Cuauhtemoc"},"77":{"Total_Rides":175,"Start_Station":210,"End_Station":209,"Start_Station_Name":"210 EUGENIO SUE-HORACIO ","Start_Station_Lat":19.434076,"Start_Station_Lon":-99.194091,"Start_Colonia":"Polanco","End_Station_Name":"209 SOLON-HORACIO ","End_Station_Lat":19.435478,"End_Station_Lon":-99.206359,"End_Colonia":"Polanco"},"78":{"Total_Rides":174,"Start_Station":60,"End_Station":36,"Start_Station_Name":"60 MAZATLAN-FERNANDO MONTES DE OCA","Start_Station_Lat":19.414191,"Start_Station_Lon":-99.177123,"Start_Colonia":"Condesa","End_Station_Name":"36 PUEBLA-VERACRUZ","End_Station_Lat":19.419725,"End_Station_Lon":-99.175778,"End_Colonia":"Piedad Narvarte"},"79":{"Total_Rides":173,"Start_Station":85,"End_Station":85,"Start_Station_Name":"85 ROSAS MORENO-SULLIVAN","Start_Station_Lat":19.43425,"Start_Station_Lon":-99.162508,"Start_Colonia":"San Rafael","End_Station_Name":"85 ROSAS MORENO-SULLIVAN","End_Station_Lat":19.43425,"End_Station_Lon":-99.162508,"End_Colonia":"San Rafael"},"80":{"Total_Rides":173,"Start_Station":36,"End_Station":57,"Start_Station_Name":"36 PUEBLA-VERACRUZ","Start_Station_Lat":19.419725,"Start_Station_Lon":-99.175778,"Start_Colonia":"Piedad Narvarte","End_Station_Name":"57 CUERNAVACA-JUAN ESCUTIA","End_Station_Lat":19.414903,"End_Station_Lon":-99.17495,"End_Colonia":"Condesa"},"81":{"Total_Rides":172,"Start_Station":18,"End_Station":18,"Start_Station_Name":"18 REFORMA-RIO RHIN","Start_Station_Lat":19.42888,"Start_Station_Lon":-99.164176,"Start_Colonia":"Cuauhtemoc","End_Station_Name":"18 REFORMA-RIO RHIN","End_Station_Lat":19.42888,"End_Station_Lon":-99.164176,"End_Colonia":"Cuauhtemoc"},"82":{"Total_Rides":172,"Start_Station":86,"End_Station":15,"Start_Station_Name":"86 SULLIVAN-INSURGENTES","Start_Station_Lat":19.432378,"Start_Station_Lon":-99.159077,"Start_Colonia":"San Rafael","End_Station_Name":"15 REFORMA-RIO MISSISSIPPI","End_Station_Lat":19.425477,"End_Station_Lon":-99.171567,"End_Colonia":"Cuauhtemoc"},"83":{"Total_Rides":171,"Start_Station":71,"End_Station":84,"Start_Station_Name":"71 AMSTERDAM-MICHOACAN","Start_Station_Lat":19.411423,"Start_Station_Lon":-99.171351,"Start_Colonia":"Hipodromo","End_Station_Name":"84 CHILPANCINGO-TLAXCALA","End_Station_Lat":19.40702,"End_Station_Lon":-99.169587,"End_Colonia":"Hipodromo"},"84":{"Total_Rides":171,"Start_Station":1,"End_Station":4,"Start_Station_Name":"1 RIO SENA-RIO BALSAS","Start_Station_Lat":19.4335714,"Start_Station_Lon":-99.1678091,"Start_Colonia":"Cuauhtemoc","End_Station_Name":"4 RIO NILO-RIO PANUCO","End_Station_Lat":19.428309,"End_Station_Lon":-99.171713,"End_Colonia":"Cuauhtemoc"},"85":{"Total_Rides":169,"Start_Station":217,"End_Station":212,"Start_Station_Name":"217 EULER-AV. HORACIO ","Start_Station_Lat":19.432888,"Start_Station_Lon":-99.183605,"Start_Colonia":"Polanco","End_Station_Name":"212 HEGEL-HORACIO ","End_Station_Lat":19.433567,"End_Station_Lon":-99.188096,"End_Colonia":"Polanco"},"86":{"Total_Rides":169,"Start_Station":141,"End_Station":158,"Start_Station_Name":"141 ZACATECAS-LUIS CABRERA","Start_Station_Lat":19.415905,"Start_Station_Lon":-99.15954,"Start_Colonia":"Roma Norte","End_Station_Name":"158 HUATABAMPO-EJE 1PTE. CUAUHT\u00c9MOC","End_Station_Lat":19.407447,"End_Station_Lon":-99.155717,"End_Colonia":"Roma Sur"},"87":{"Total_Rides":169,"Start_Station":174,"End_Station":111,"Start_Station_Name":"174 JOAQU\u00cdN GARCIA-IGNACIO MANUEL ALTAMIRANO","Start_Station_Lat":19.44111,"Start_Station_Lon":-99.16164,"Start_Colonia":"San Rafael","End_Station_Name":"111 GUILLERMO PRIETO-JOAQU\u00cdN VEL\u00c1ZQUEZ DE LE\u00d3N","End_Station_Lat":19.4382369,"End_Station_Lon":-99.1659465,"End_Colonia":"San Rafael"},"88":{"Total_Rides":167,"Start_Station":36,"End_Station":60,"Start_Station_Name":"36 PUEBLA-VERACRUZ","Start_Station_Lat":19.419725,"Start_Station_Lon":-99.175778,"Start_Colonia":"Piedad Narvarte","End_Station_Name":"60 MAZATLAN-FERNANDO MONTES DE OCA","End_Station_Lat":19.414191,"End_Station_Lon":-99.177123,"End_Colonia":"Condesa"},"89":{"Total_Rides":166,"Start_Station":21,"End_Station":24,"Start_Station_Name":"21 REFORMA-DUBLIN","Start_Station_Lat":19.42472,"Start_Station_Lon":-99.17206,"Start_Colonia":"Juarez","End_Station_Name":"24 REFORMA-VARSOVIA","End_Station_Lat":19.42647,"End_Station_Lon":-99.16822,"End_Colonia":"Juarez"},"90":{"Total_Rides":166,"Start_Station":86,"End_Station":16,"Start_Station_Name":"86 SULLIVAN-INSURGENTES","Start_Station_Lat":19.432378,"Start_Station_Lon":-99.159077,"Start_Colonia":"San Rafael","End_Station_Name":"16 REFORMA-R\u00cdO TIBER","End_Station_Lat":19.427226,"End_Station_Lon":-99.168242,"End_Colonia":"Cuauhtemoc"},"91":{"Total_Rides":165,"Start_Station":4,"End_Station":1,"Start_Station_Name":"4 RIO NILO-RIO PANUCO","Start_Station_Lat":19.428309,"Start_Station_Lon":-99.171713,"Start_Colonia":"Cuauhtemoc","End_Station_Name":"1 RIO SENA-RIO BALSAS","End_Station_Lat":19.4335714,"End_Station_Lon":-99.1678091,"End_Colonia":"Cuauhtemoc"},"92":{"Total_Rides":165,"Start_Station":54,"End_Station":54,"Start_Station_Name":"54 PARQUE ESPA\u00d1A-SONORA","Start_Station_Lat":19.416215,"Start_Station_Lon":-99.170825,"Start_Colonia":"Condesa","End_Station_Name":"54 PARQUE ESPA\u00d1A-SONORA","End_Station_Lat":19.416215,"End_Station_Lon":-99.170825,"End_Colonia":"Condesa"},"93":{"Total_Rides":165,"Start_Station":111,"End_Station":174,"Start_Station_Name":"111 GUILLERMO PRIETO-JOAQU\u00cdN VEL\u00c1ZQUEZ DE LE\u00d3N","Start_Station_Lat":19.4382369,"Start_Station_Lon":-99.1659465,"Start_Colonia":"San Rafael","End_Station_Name":"174 JOAQU\u00cdN GARCIA-IGNACIO MANUEL ALTAMIRANO","End_Station_Lat":19.44111,"End_Station_Lon":-99.16164,"End_Colonia":"San Rafael"},"94":{"Total_Rides":163,"Start_Station":36,"End_Station":63,"Start_Station_Name":"36 PUEBLA-VERACRUZ","Start_Station_Lat":19.419725,"Start_Station_Lon":-99.175778,"Start_Colonia":"Piedad Narvarte","End_Station_Name":"63 NUEVO LEON- LAREDO","End_Station_Lat":19.413681,"End_Station_Lon":-99.171531,"End_Colonia":"Condesa"},"95":{"Total_Rides":163,"Start_Station":36,"End_Station":64,"Start_Station_Name":"36 PUEBLA-VERACRUZ","Start_Station_Lat":19.419725,"Start_Station_Lon":-99.175778,"Start_Colonia":"Piedad Narvarte","End_Station_Name":"64 SONORA-AMSTERDAM","End_Station_Lat":19.412877,"End_Station_Lon":-99.166986,"End_Colonia":"Hipodromo"},"96":{"Total_Rides":163,"Start_Station":136,"End_Station":135,"Start_Station_Name":"136 \u00c1LVARO OBREG\u00d3N-TONAL\u00c1","Start_Station_Lat":19.417715,"Start_Station_Lon":-99.162729,"Start_Colonia":"Roma Norte","End_Station_Name":"135 \u00c1LVARO OBREG\u00d3N-MORELIA","End_Station_Lat":19.419225,"End_Station_Lon":-99.155099,"End_Colonia":"Roma Norte"},"97":{"Total_Rides":162,"Start_Station":20,"End_Station":17,"Start_Station_Name":"20 REFORMA-RIO TAMESIS","Start_Station_Lat":19.430964,"Start_Station_Lon":-99.160206,"Start_Colonia":"Cuauhtemoc","End_Station_Name":"17 REFORMA-RIO TIBER","End_Station_Lat":19.427501,"End_Station_Lon":-99.167125,"End_Colonia":"Cuauhtemoc"},"98":{"Total_Rides":162,"Start_Station":209,"End_Station":208,"Start_Station_Name":"209 SOLON-HORACIO ","Start_Station_Lat":19.435478,"Start_Station_Lon":-99.206359,"Start_Colonia":"Polanco","End_Station_Name":"208 HESIODO-LAMARTINE ","End_Station_Lat":19.434182,"End_Station_Lon":-99.189835,"End_Colonia":"Polanco"},"99":{"Total_Rides":161,"Start_Station":158,"End_Station":155,"Start_Station_Name":"158 HUATABAMPO-EJE 1PTE. CUAUHT\u00c9MOC","Start_Station_Lat":19.407447,"Start_Station_Lon":-99.155717,"Start_Colonia":"Roma Sur","End_Station_Name":"E155 JALAPA-TLAXCALA","End_Station_Lat":19.408218,"End_Station_Lon":-99.159911,"End_Colonia":"Roma Sur"},"100":{"Total_Rides":160,"Start_Station":49,"End_Station":49,"Start_Station_Name":"49 MAZATLAN-JUAN DE LA BARRERA","Start_Station_Lat":19.416712,"Start_Station_Lon":-99.175704,"Start_Colonia":"Condesa","End_Station_Name":"49 MAZATLAN-JUAN DE LA BARRERA","End_Station_Lat":19.416712,"End_Station_Lon":-99.175704,"End_Colonia":"Condesa"},"101":{"Total_Rides":160,"Start_Station":14,"End_Station":27,"Start_Station_Name":"14 REFORMA-RIO DE PLATA","Start_Station_Lat":19.424768,"Start_Station_Lon":-99.173261,"Start_Colonia":"Cuauhtemoc","End_Station_Name":"27 REFORMA-HAVRE","End_Station_Lat":19.429115,"End_Station_Lon":-99.162614,"End_Colonia":"Juarez"},"102":{"Total_Rides":160,"Start_Station":86,"End_Station":17,"Start_Station_Name":"86 SULLIVAN-INSURGENTES","Start_Station_Lat":19.432378,"Start_Station_Lon":-99.159077,"Start_Colonia":"San Rafael","End_Station_Name":"17 REFORMA-RIO TIBER","End_Station_Lat":19.427501,"End_Station_Lon":-99.167125,"End_Colonia":"Cuauhtemoc"},"103":{"Total_Rides":160,"Start_Station":1,"End_Station":174,"Start_Station_Name":"1 RIO SENA-RIO BALSAS","Start_Station_Lat":19.4335714,"Start_Station_Lon":-99.1678091,"Start_Colonia":"Cuauhtemoc","End_Station_Name":"174 JOAQU\u00cdN GARCIA-IGNACIO MANUEL ALTAMIRANO","End_Station_Lat":19.44111,"End_Station_Lon":-99.16164,"End_Colonia":"San Rafael"},"104":{"Total_Rides":159,"Start_Station":27,"End_Station":266,"Start_Station_Name":"27 REFORMA-HAVRE","Start_Station_Lat":19.429115,"Start_Station_Lon":-99.162614,"Start_Colonia":"Juarez","End_Station_Name":"266 AV. JES\u00daS GARCIA-CARLOS J. MENESES ","End_Station_Lat":19.444031,"End_Station_Lon":-99.152187,"End_Colonia":"Buenavista"},"105":{"Total_Rides":159,"Start_Station":271,"End_Station":18,"Start_Station_Name":"271 AV. CENTRAL-J. MENESES ","Start_Station_Lat":19.443928,"Start_Station_Lon":-99.152525,"Start_Colonia":"Buenavista","End_Station_Name":"18 REFORMA-RIO RHIN","End_Station_Lat":19.42888,"End_Station_Lon":-99.164176,"End_Colonia":"Cuauhtemoc"},"106":{"Total_Rides":157,"Start_Station":36,"End_Station":58,"Start_Station_Name":"36 PUEBLA-VERACRUZ","Start_Station_Lat":19.419725,"Start_Station_Lon":-99.175778,"Start_Colonia":"Piedad Narvarte","End_Station_Name":"58 PARQUE ESPA\u00d1A-JUAN DE LA BARRERA","End_Station_Lat":19.41568,"End_Station_Lon":-99.171793,"End_Colonia":"Condesa"},"107":{"Total_Rides":157,"Start_Station":64,"End_Station":36,"Start_Station_Name":"64 SONORA-AMSTERDAM","Start_Station_Lat":19.412877,"Start_Station_Lon":-99.166986,"Start_Colonia":"Hipodromo","End_Station_Name":"36 PUEBLA-VERACRUZ","End_Station_Lat":19.419725,"End_Station_Lon":-99.175778,"End_Colonia":"Piedad Narvarte"},"108":{"Total_Rides":157,"Start_Station":41,"End_Station":41,"Start_Station_Name":"41 REFORMA-AV. DE LA REPUBLICA","Start_Station_Lat":19.435637,"Start_Station_Lon":-99.150137,"Start_Colonia":"Tabacalera","End_Station_Name":"41 REFORMA-AV. DE LA REPUBLICA","End_Station_Lat":19.435637,"End_Station_Lon":-99.150137,"End_Colonia":"Tabacalera"},"109":{"Total_Rides":157,"Start_Station":68,"End_Station":77,"Start_Station_Name":"68 TAMAULIPAS-MICHOACAN","Start_Station_Lat":19.411556,"Start_Station_Lon":-99.17406,"Start_Colonia":"Condesa","End_Station_Name":"77 CHOAPAN-TAMAULIPAS","End_Station_Lat":19.406765,"End_Station_Lon":-99.178321,"End_Colonia":"Hipodromo"},"110":{"Total_Rides":157,"Start_Station":64,"End_Station":63,"Start_Station_Name":"64 SONORA-AMSTERDAM","Start_Station_Lat":19.412877,"Start_Station_Lon":-99.166986,"Start_Colonia":"Hipodromo","End_Station_Name":"63 NUEVO LEON- LAREDO","End_Station_Lat":19.413681,"End_Station_Lon":-99.171531,"End_Colonia":"Condesa"},"111":{"Total_Rides":157,"Start_Station":219,"End_Station":197,"Start_Station_Name":"219 ESOPO-FC DE CUERNAVACA","Start_Station_Lat":19.433542,"Start_Station_Lon":-99.207808,"Start_Colonia":"Polanco","End_Station_Name":"197 MIGUEL DE CERVANTES-FC DE CUERNAVACA","End_Station_Lat":19.440077,"End_Station_Lon":-99.204316,"End_Colonia":"Granada"},"112":{"Total_Rides":156,"Start_Station":10,"End_Station":10,"Start_Station_Name":"10 REFORMA-RAMIREZ","Start_Station_Lat":19.433321,"Start_Station_Lon":-99.154752,"Start_Colonia":"Tabacalera","End_Station_Name":"10 REFORMA-RAMIREZ","End_Station_Lat":19.433321,"End_Station_Lon":-99.154752,"End_Colonia":"Tabacalera"},"113":{"Total_Rides":156,"Start_Station":58,"End_Station":58,"Start_Station_Name":"58 PARQUE ESPA\u00d1A-JUAN DE LA BARRERA","Start_Station_Lat":19.41568,"Start_Station_Lon":-99.171793,"Start_Colonia":"Condesa","End_Station_Name":"58 PARQUE ESPA\u00d1A-JUAN DE LA BARRERA","End_Station_Lat":19.41568,"End_Station_Lon":-99.171793,"End_Colonia":"Condesa"},"114":{"Total_Rides":156,"Start_Station":63,"End_Station":63,"Start_Station_Name":"63 NUEVO LEON- LAREDO","Start_Station_Lat":19.413681,"Start_Station_Lon":-99.171531,"Start_Colonia":"Condesa","End_Station_Name":"63 NUEVO LEON- LAREDO","End_Station_Lat":19.413681,"End_Station_Lon":-99.171531,"End_Colonia":"Condesa"},"115":{"Total_Rides":156,"Start_Station":13,"End_Station":27,"Start_Station_Name":"13 REFORMA-RIO MISSISSIPPI","Start_Station_Lat":19.42502,"Start_Station_Lon":-99.17231,"Start_Colonia":"Cuauhtemoc","End_Station_Name":"27 REFORMA-HAVRE","End_Station_Lat":19.429115,"End_Station_Lon":-99.162614,"End_Colonia":"Juarez"},"116":{"Total_Rides":156,"Start_Station":26,"End_Station":43,"Start_Station_Name":"26 REFORMA-VERSALLES","Start_Station_Lat":19.432685,"Start_Station_Lon":-99.154726,"Start_Colonia":"Juarez","End_Station_Name":"43 JUAREZ-REVILLAGIGEDO","End_Station_Lat":19.435228,"End_Station_Lon":-99.146063,"End_Colonia":"Centro"},"117":{"Total_Rides":156,"Start_Station":158,"End_Station":145,"Start_Station_Name":"158 HUATABAMPO-EJE 1PTE. CUAUHT\u00c9MOC","Start_Station_Lat":19.407447,"Start_Station_Lon":-99.155717,"Start_Colonia":"Roma Sur","End_Station_Name":"145 EJE 2 SUR YUCAT\u00c1N-CHIAPAS","End_Station_Lat":19.41286,"End_Station_Lon":-99.160661,"End_Colonia":"Roma Norte"},"118":{"Total_Rides":155,"Start_Station":174,"End_Station":1,"Start_Station_Name":"174 JOAQU\u00cdN GARCIA-IGNACIO MANUEL ALTAMIRANO","Start_Station_Lat":19.44111,"Start_Station_Lon":-99.16164,"Start_Colonia":"San Rafael","End_Station_Name":"1 RIO SENA-RIO BALSAS","End_Station_Lat":19.4335714,"End_Station_Lon":-99.1678091,"End_Colonia":"Cuauhtemoc"},"119":{"Total_Rides":154,"Start_Station":27,"End_Station":17,"Start_Station_Name":"27 REFORMA-HAVRE","Start_Station_Lat":19.429115,"Start_Station_Lon":-99.162614,"Start_Colonia":"Juarez","End_Station_Name":"17 REFORMA-RIO TIBER","End_Station_Lat":19.427501,"End_Station_Lon":-99.167125,"End_Colonia":"Cuauhtemoc"},"120":{"Total_Rides":153,"Start_Station":20,"End_Station":15,"Start_Station_Name":"20 REFORMA-RIO TAMESIS","Start_Station_Lat":19.430964,"Start_Station_Lon":-99.160206,"Start_Colonia":"Cuauhtemoc","End_Station_Name":"15 REFORMA-RIO MISSISSIPPI","End_Station_Lat":19.425477,"End_Station_Lon":-99.171567,"End_Colonia":"Cuauhtemoc"},"121":{"Total_Rides":153,"Start_Station":113,"End_Station":107,"Start_Station_Name":"113 GENERAL PRIM-VERSALLES","Start_Station_Lat":19.430369,"Start_Station_Lon":-99.154419,"Start_Colonia":"Juarez","End_Station_Name":"107 TOLSA-BALDERAS","End_Station_Lat":19.427329,"End_Station_Lon":-99.149971,"End_Colonia":"Centro"},"122":{"Total_Rides":152,"Start_Station":71,"End_Station":71,"Start_Station_Name":"71 AMSTERDAM-MICHOACAN","Start_Station_Lat":19.411423,"Start_Station_Lon":-99.171351,"Start_Colonia":"Hipodromo","End_Station_Name":"71 AMSTERDAM-MICHOACAN","End_Station_Lat":19.411423,"End_Station_Lon":-99.171351,"End_Colonia":"Hipodromo"},"123":{"Total_Rides":151,"Start_Station":74,"End_Station":84,"Start_Station_Name":"74 NUEVO LEON-OZULAMA","Start_Station_Lat":19.410343,"Start_Station_Lon":-99.172831,"Start_Colonia":"Hipodromo","End_Station_Name":"84 CHILPANCINGO-TLAXCALA","End_Station_Lat":19.40702,"End_Station_Lon":-99.169587,"End_Colonia":"Hipodromo"},"124":{"Total_Rides":151,"Start_Station":271,"End_Station":270,"Start_Station_Name":"271 AV. CENTRAL-J. MENESES ","Start_Station_Lat":19.443928,"Start_Station_Lon":-99.152525,"Start_Colonia":"Buenavista","End_Station_Name":"270 DE LA REPUBLICA-PONCIANO ARRIAGA ","End_Station_Lat":19.43676,"End_Station_Lon":-99.15387,"End_Colonia":"Tabacalera"},"125":{"Total_Rides":150,"Start_Station":10,"End_Station":18,"Start_Station_Name":"10 REFORMA-RAMIREZ","Start_Station_Lat":19.433321,"Start_Station_Lon":-99.154752,"Start_Colonia":"Tabacalera","End_Station_Name":"18 REFORMA-RIO RHIN","End_Station_Lat":19.42888,"End_Station_Lon":-99.164176,"End_Colonia":"Cuauhtemoc"},"126":{"Total_Rides":150,"Start_Station":210,"End_Station":206,"Start_Station_Name":"210 EUGENIO SUE-HORACIO ","Start_Station_Lat":19.434076,"Start_Station_Lon":-99.194091,"Start_Colonia":"Polanco","End_Station_Name":"206 MOLIERE-HOMERO ","End_Station_Lat":19.435798,"End_Station_Lon":-99.201419,"End_Colonia":"Polanco"},"127":{"Total_Rides":149,"Start_Station":61,"End_Station":84,"Start_Station_Name":"61 AVENIDA MEXICO-SONORA","Start_Station_Lat":19.413742,"Start_Station_Lon":-99.169525,"Start_Colonia":"Hipodromo","End_Station_Name":"84 CHILPANCINGO-TLAXCALA","End_Station_Lat":19.40702,"End_Station_Lon":-99.169587,"End_Colonia":"Hipodromo"},"128":{"Total_Rides":149,"Start_Station":47,"End_Station":47,"Start_Station_Name":"47 GLORIETA CIBELES-OAXACA","Start_Station_Lat":19.419515,"Start_Station_Lon":-99.166299,"Start_Colonia":"Roma Norte","End_Station_Name":"47 GLORIETA CIBELES-OAXACA","End_Station_Lat":19.419515,"End_Station_Lon":-99.166299,"End_Colonia":"Roma Norte"},"129":{"Total_Rides":149,"Start_Station":1,"End_Station":99,"Start_Station_Name":"1 RIO SENA-RIO BALSAS","Start_Station_Lat":19.4335714,"Start_Station_Lon":-99.1678091,"Start_Colonia":"Cuauhtemoc","End_Station_Name":"99 ERNESTO PUGIBET-LUIS MOYA","End_Station_Lat":19.42995,"End_Station_Lon":-99.14591,"End_Colonia":"Centro"},"130":{"Total_Rides":148,"Start_Station":64,"End_Station":71,"Start_Station_Name":"64 SONORA-AMSTERDAM","Start_Station_Lat":19.412877,"Start_Station_Lon":-99.166986,"Start_Colonia":"Hipodromo","End_Station_Name":"71 AMSTERDAM-MICHOACAN","End_Station_Lat":19.411423,"End_Station_Lon":-99.171351,"End_Colonia":"Hipodromo"},"131":{"Total_Rides":147,"Start_Station":126,"End_Station":141,"Start_Station_Name":"126 JALAPA-PUEBLA","Start_Station_Lat":19.422288,"Start_Station_Lon":-99.162138,"Start_Colonia":"Roma Norte","End_Station_Name":"141 ZACATECAS-LUIS CABRERA","End_Station_Lat":19.415905,"End_Station_Lon":-99.15954,"End_Colonia":"Roma Norte"},"132":{"Total_Rides":146,"Start_Station":155,"End_Station":158,"Start_Station_Name":"E155 JALAPA-TLAXCALA","Start_Station_Lat":19.408218,"Start_Station_Lon":-99.159911,"Start_Colonia":"Roma Sur","End_Station_Name":"158 HUATABAMPO-EJE 1PTE. CUAUHT\u00c9MOC","End_Station_Lat":19.407447,"End_Station_Lon":-99.155717,"End_Colonia":"Roma Sur"},"133":{"Total_Rides":146,"Start_Station":208,"End_Station":217,"Start_Station_Name":"208 HESIODO-LAMARTINE ","Start_Station_Lat":19.434182,"Start_Station_Lon":-99.189835,"Start_Colonia":"Polanco","End_Station_Name":"217 EULER-AV. HORACIO ","End_Station_Lat":19.432888,"End_Station_Lon":-99.183605,"End_Colonia":"Polanco"},"134":{"Total_Rides":145,"Start_Station":53,"End_Station":53,"Start_Station_Name":"53 FERNANDO MONTES DE OCA-TULA","Start_Station_Lat":19.414773,"Start_Station_Lon":-99.178433,"Start_Colonia":"Condesa","End_Station_Name":"53 FERNANDO MONTES DE OCA-TULA","End_Station_Lat":19.414773,"End_Station_Lon":-99.178433,"End_Colonia":"Condesa"},"135":{"Total_Rides":145,"Start_Station":16,"End_Station":16,"Start_Station_Name":"16 REFORMA-R\u00cdO TIBER","Start_Station_Lat":19.427226,"Start_Station_Lon":-99.168242,"Start_Colonia":"Cuauhtemoc","End_Station_Name":"16 REFORMA-R\u00cdO TIBER","End_Station_Lat":19.427226,"End_Station_Lon":-99.168242,"End_Colonia":"Cuauhtemoc"},"136":{"Total_Rides":145,"Start_Station":77,"End_Station":67,"Start_Station_Name":"77 CHOAPAN-TAMAULIPAS","Start_Station_Lat":19.406765,"Start_Station_Lon":-99.178321,"Start_Colonia":"Hipodromo","End_Station_Name":"67 VICENTE SUAREZ-MICHOACAN","End_Station_Lat":19.411797,"End_Station_Lon":-99.17588,"End_Colonia":"Condesa"},"137":{"Total_Rides":145,"Start_Station":27,"End_Station":52,"Start_Station_Name":"27 REFORMA-HAVRE","Start_Station_Lat":19.429115,"Start_Station_Lon":-99.162614,"Start_Colonia":"Juarez","End_Station_Name":"52 HIDALGO-TRUJANO","End_Station_Lat":19.436236,"End_Station_Lon":-99.142039,"End_Colonia":"Centro"},"138":{"Total_Rides":145,"Start_Station":82,"End_Station":124,"Start_Station_Name":"82 INDEPENDENCIA-MARROQUI","Start_Station_Lat":19.433115,"Start_Station_Lon":-99.143686,"Start_Colonia":"Centro","End_Station_Name":"124 CLAUDIO BERNARD-DR. LICEAGA","End_Station_Lat":19.422392,"End_Station_Lon":-99.150358,"End_Colonia":"Ampliacion Granada"},"139":{"Total_Rides":144,"Start_Station":36,"End_Station":66,"Start_Station_Name":"36 PUEBLA-VERACRUZ","Start_Station_Lat":19.419725,"Start_Station_Lon":-99.175778,"Start_Colonia":"Piedad Narvarte","End_Station_Name":"66 MAZATLAN-FRANCISCO MARQUEZ","End_Station_Lat":19.411402,"End_Station_Lon":-99.178666,"End_Colonia":"Hipodromo Condesa"},"140":{"Total_Rides":144,"Start_Station":68,"End_Station":68,"Start_Station_Name":"68 TAMAULIPAS-MICHOACAN","Start_Station_Lat":19.411556,"Start_Station_Lon":-99.17406,"Start_Colonia":"Condesa","End_Station_Name":"68 TAMAULIPAS-MICHOACAN","End_Station_Lat":19.411556,"End_Station_Lon":-99.17406,"End_Colonia":"Condesa"},"141":{"Total_Rides":144,"Start_Station":36,"End_Station":50,"Start_Station_Name":"36 PUEBLA-VERACRUZ","Start_Station_Lat":19.419725,"Start_Station_Lon":-99.175778,"Start_Colonia":"Piedad Narvarte","End_Station_Name":"50 CUERNAVACA-VERACRUZ","End_Station_Lat":19.416938,"End_Station_Lon":-99.173648,"End_Colonia":"Condesa"},"142":{"Total_Rides":144,"Start_Station":37,"End_Station":64,"Start_Station_Name":"37 GUADALAJARA-PUEBLA","Start_Station_Lat":19.420419,"Start_Station_Lon":-99.172676,"Start_Colonia":"Roma Norte","End_Station_Name":"64 SONORA-AMSTERDAM","End_Station_Lat":19.412877,"End_Station_Lon":-99.166986,"End_Colonia":"Hipodromo"},"143":{"Total_Rides":144,"Start_Station":18,"End_Station":13,"Start_Station_Name":"18 REFORMA-RIO RHIN","Start_Station_Lat":19.42888,"Start_Station_Lon":-99.164176,"Start_Colonia":"Cuauhtemoc","End_Station_Name":"13 REFORMA-RIO MISSISSIPPI","End_Station_Lat":19.42502,"End_Station_Lon":-99.17231,"End_Colonia":"Cuauhtemoc"},"144":{"Total_Rides":144,"Start_Station":85,"End_Station":86,"Start_Station_Name":"85 ROSAS MORENO-SULLIVAN","Start_Station_Lat":19.43425,"Start_Station_Lon":-99.162508,"Start_Colonia":"San Rafael","End_Station_Name":"86 SULLIVAN-INSURGENTES","End_Station_Lat":19.432378,"End_Station_Lon":-99.159077,"End_Colonia":"San Rafael"},"145":{"Total_Rides":144,"Start_Station":86,"End_Station":1,"Start_Station_Name":"86 SULLIVAN-INSURGENTES","Start_Station_Lat":19.432378,"Start_Station_Lon":-99.159077,"Start_Colonia":"San Rafael","End_Station_Name":"1 RIO SENA-RIO BALSAS","End_Station_Lat":19.4335714,"End_Station_Lon":-99.1678091,"End_Colonia":"Cuauhtemoc"},"146":{"Total_Rides":144,"Start_Station":242,"End_Station":235,"Start_Station_Name":"242 MIGUEL DE CERVANTES SAAVEDRA-PROL MOLIERE ","Start_Station_Lat":19.440344,"Start_Station_Lon":-99.20105,"Start_Colonia":"Granada","End_Station_Name":"235 CAMPOS ELISEOS-MOLIERE ","End_Station_Lat":19.42933,"End_Station_Lon":-99.20218,"End_Colonia":"Polanco"},"147":{"Total_Rides":143,"Start_Station":63,"End_Station":36,"Start_Station_Name":"63 NUEVO LEON- LAREDO","Start_Station_Lat":19.413681,"Start_Station_Lon":-99.171531,"Start_Colonia":"Condesa","End_Station_Name":"36 PUEBLA-VERACRUZ","End_Station_Lat":19.419725,"End_Station_Lon":-99.175778,"End_Colonia":"Piedad Narvarte"},"148":{"Total_Rides":143,"Start_Station":208,"End_Station":209,"Start_Station_Name":"208 HESIODO-LAMARTINE ","Start_Station_Lat":19.434182,"Start_Station_Lon":-99.189835,"Start_Colonia":"Polanco","End_Station_Name":"209 SOLON-HORACIO ","End_Station_Lat":19.435478,"End_Station_Lon":-99.206359,"End_Colonia":"Polanco"},"149":{"Total_Rides":143,"Start_Station":206,"End_Station":204,"Start_Station_Name":"206 MOLIERE-HOMERO ","Start_Station_Lat":19.435798,"Start_Station_Lon":-99.201419,"Start_Colonia":"Polanco","End_Station_Name":"204 TEMISTOCLES-HOMERO","End_Station_Lat":19.435882,"End_Station_Lon":-99.19152,"End_Colonia":"Polanco"},"150":{"Total_Rides":142,"Start_Station":54,"End_Station":64,"Start_Station_Name":"54 PARQUE ESPA\u00d1A-SONORA","Start_Station_Lat":19.416215,"Start_Station_Lon":-99.170825,"Start_Colonia":"Condesa","End_Station_Name":"64 SONORA-AMSTERDAM","End_Station_Lat":19.412877,"End_Station_Lon":-99.166986,"End_Colonia":"Hipodromo"},"151":{"Total_Rides":142,"Start_Station":27,"End_Station":26,"Start_Station_Name":"27 REFORMA-HAVRE","Start_Station_Lat":19.429115,"Start_Station_Lon":-99.162614,"Start_Colonia":"Juarez","End_Station_Name":"26 REFORMA-VERSALLES","End_Station_Lat":19.432685,"End_Station_Lon":-99.154726,"End_Colonia":"Juarez"},"152":{"Total_Rides":142,"Start_Station":59,"End_Station":84,"Start_Station_Name":"59 POPOCATEPETL-AMSTERDAM","Start_Station_Lat":19.415121,"Start_Station_Lon":-99.166661,"Start_Colonia":"Hipodromo","End_Station_Name":"84 CHILPANCINGO-TLAXCALA","End_Station_Lat":19.40702,"End_Station_Lon":-99.169587,"End_Colonia":"Hipodromo"},"153":{"Total_Rides":141,"Start_Station":64,"End_Station":64,"Start_Station_Name":"64 SONORA-AMSTERDAM","Start_Station_Lat":19.412877,"Start_Station_Lon":-99.166986,"Start_Colonia":"Hipodromo","End_Station_Name":"64 SONORA-AMSTERDAM","End_Station_Lat":19.412877,"End_Station_Lon":-99.166986,"End_Colonia":"Hipodromo"},"154":{"Total_Rides":141,"Start_Station":163,"End_Station":165,"Start_Station_Name":"163 TOLUCA-BAJ\u00cdO","Start_Station_Lat":19.405246,"Start_Station_Lon":-99.156431,"Start_Colonia":"Roma Sur","End_Station_Name":"165 BAJ\u00cdO-EJE 2 PTE. MONTERREY","End_Station_Lat":19.404268,"End_Station_Lon":-99.160503,"End_Colonia":"Roma Sur"},"155":{"Total_Rides":141,"Start_Station":107,"End_Station":113,"Start_Station_Name":"107 TOLSA-BALDERAS","Start_Station_Lat":19.427329,"Start_Station_Lon":-99.149971,"Start_Colonia":"Centro","End_Station_Name":"113 GENERAL PRIM-VERSALLES","End_Station_Lat":19.430369,"End_Station_Lon":-99.154419,"End_Colonia":"Juarez"},"156":{"Total_Rides":141,"Start_Station":261,"End_Station":27,"Start_Station_Name":"261 PASEO DE LA REFORMA - R\u00cdO DE LA PLATA","Start_Station_Lat":19.42495,"Start_Station_Lon":-99.17246,"Start_Colonia":"Juarez","End_Station_Name":"27 REFORMA-HAVRE","End_Station_Lat":19.429115,"End_Station_Lon":-99.162614,"End_Colonia":"Juarez"},"157":{"Total_Rides":140,"Start_Station":6,"End_Station":35,"Start_Station_Name":"6 RIO PANUCO-RIO SENA","Start_Station_Lat":19.430922,"Start_Station_Lon":-99.166959,"Start_Colonia":"Cuauhtemoc","End_Station_Name":"35 LIVERPOOL-GENOVA","End_Station_Lat":19.424674,"End_Station_Lon":-99.163292,"End_Colonia":"Juarez"},"158":{"Total_Rides":140,"Start_Station":67,"End_Station":67,"Start_Station_Name":"67 VICENTE SUAREZ-MICHOACAN","Start_Station_Lat":19.411797,"Start_Station_Lon":-99.17588,"Start_Colonia":"Condesa","End_Station_Name":"67 VICENTE SUAREZ-MICHOACAN","End_Station_Lat":19.411797,"End_Station_Lon":-99.17588,"End_Colonia":"Condesa"},"159":{"Total_Rides":140,"Start_Station":63,"End_Station":84,"Start_Station_Name":"63 NUEVO LEON- LAREDO","Start_Station_Lat":19.413681,"Start_Station_Lon":-99.171531,"Start_Colonia":"Condesa","End_Station_Name":"84 CHILPANCINGO-TLAXCALA","End_Station_Lat":19.40702,"End_Station_Lon":-99.169587,"End_Colonia":"Hipodromo"},"160":{"Total_Rides":140,"Start_Station":27,"End_Station":23,"Start_Station_Name":"27 REFORMA-HAVRE","Start_Station_Lat":19.429115,"Start_Station_Lon":-99.162614,"Start_Colonia":"Juarez","End_Station_Name":"23 REFORMA-PRAGA","End_Station_Lat":19.42517,"End_Station_Lon":-99.17105,"End_Colonia":"Juarez"},"161":{"Total_Rides":140,"Start_Station":52,"End_Station":43,"Start_Station_Name":"52 HIDALGO-TRUJANO","Start_Station_Lat":19.436236,"Start_Station_Lon":-99.142039,"Start_Colonia":"Centro","End_Station_Name":"43 JUAREZ-REVILLAGIGEDO","End_Station_Lat":19.435228,"End_Station_Lon":-99.146063,"End_Colonia":"Centro"},"162":{"Total_Rides":140,"Start_Station":145,"End_Station":158,"Start_Station_Name":"145 EJE 2 SUR YUCAT\u00c1N-CHIAPAS","Start_Station_Lat":19.41286,"Start_Station_Lon":-99.160661,"Start_Colonia":"Roma Norte","End_Station_Name":"158 HUATABAMPO-EJE 1PTE. CUAUHT\u00c9MOC","End_Station_Lat":19.407447,"End_Station_Lon":-99.155717,"End_Colonia":"Roma Sur"},"163":{"Total_Rides":139,"Start_Station":32,"End_Station":24,"Start_Station_Name":"32 LONDRES-SEVILLA","Start_Station_Lat":19.422705,"Start_Station_Lon":-99.169922,"Start_Colonia":"Juarez","End_Station_Name":"24 REFORMA-VARSOVIA","End_Station_Lat":19.42647,"End_Station_Lon":-99.16822,"End_Colonia":"Juarez"},"164":{"Total_Rides":139,"Start_Station":58,"End_Station":36,"Start_Station_Name":"58 PARQUE ESPA\u00d1A-JUAN DE LA BARRERA","Start_Station_Lat":19.41568,"Start_Station_Lon":-99.171793,"Start_Colonia":"Condesa","End_Station_Name":"36 PUEBLA-VERACRUZ","End_Station_Lat":19.419725,"End_Station_Lon":-99.175778,"End_Colonia":"Piedad Narvarte"},"165":{"Total_Rides":138,"Start_Station":36,"End_Station":36,"Start_Station_Name":"36 PUEBLA-VERACRUZ","Start_Station_Lat":19.419725,"Start_Station_Lon":-99.175778,"Start_Colonia":"Piedad Narvarte","End_Station_Name":"36 PUEBLA-VERACRUZ","End_Station_Lat":19.419725,"End_Station_Lon":-99.175778,"End_Colonia":"Piedad Narvarte"},"166":{"Total_Rides":138,"Start_Station":16,"End_Station":27,"Start_Station_Name":"16 REFORMA-R\u00cdO TIBER","Start_Station_Lat":19.427226,"Start_Station_Lon":-99.168242,"Start_Colonia":"Cuauhtemoc","End_Station_Name":"27 REFORMA-HAVRE","End_Station_Lat":19.429115,"End_Station_Lon":-99.162614,"End_Colonia":"Juarez"},"167":{"Total_Rides":138,"Start_Station":124,"End_Station":82,"Start_Station_Name":"124 CLAUDIO BERNARD-DR. LICEAGA","Start_Station_Lat":19.422392,"Start_Station_Lon":-99.150358,"Start_Colonia":"Ampliacion Granada","End_Station_Name":"82 INDEPENDENCIA-MARROQUI","End_Station_Lat":19.433115,"End_Station_Lon":-99.143686,"End_Colonia":"Centro"},"168":{"Total_Rides":138,"Start_Station":141,"End_Station":141,"Start_Station_Name":"141 ZACATECAS-LUIS CABRERA","Start_Station_Lat":19.415905,"Start_Station_Lon":-99.15954,"Start_Colonia":"Roma Norte","End_Station_Name":"141 ZACATECAS-LUIS CABRERA","End_Station_Lat":19.415905,"End_Station_Lon":-99.15954,"End_Colonia":"Roma Norte"},"169":{"Total_Rides":138,"Start_Station":148,"End_Station":145,"Start_Station_Name":"148 COAHUILA-AV.CUAUHTEMOC","Start_Station_Lat":19.412829,"Start_Station_Lon":-99.155116,"Start_Colonia":"Roma Norte","End_Station_Name":"145 EJE 2 SUR YUCAT\u00c1N-CHIAPAS","End_Station_Lat":19.41286,"End_Station_Lon":-99.160661,"End_Colonia":"Roma Norte"},"170":{"Total_Rides":138,"Start_Station":134,"End_Station":134,"Start_Station_Name":"134 \u00c1LVARO OBREG\u00d3N-ORIZABA","Start_Station_Lat":19.418304,"Start_Station_Lon":-99.15956,"Start_Colonia":"Roma Norte","End_Station_Name":"134 \u00c1LVARO OBREG\u00d3N-ORIZABA","End_Station_Lat":19.418304,"End_Station_Lon":-99.15956,"End_Colonia":"Roma Norte"},"171":{"Total_Rides":137,"Start_Station":20,"End_Station":16,"Start_Station_Name":"20 REFORMA-RIO TAMESIS","Start_Station_Lat":19.430964,"Start_Station_Lon":-99.160206,"Start_Colonia":"Cuauhtemoc","End_Station_Name":"16 REFORMA-R\u00cdO TIBER","End_Station_Lat":19.427226,"End_Station_Lon":-99.168242,"End_Colonia":"Cuauhtemoc"},"172":{"Total_Rides":137,"Start_Station":25,"End_Station":1,"Start_Station_Name":"25 REFORMA-ESTOCOLMO","Start_Station_Lat":19.427317,"Start_Station_Lon":-99.166662,"Start_Colonia":"Juarez","End_Station_Name":"1 RIO SENA-RIO BALSAS","End_Station_Lat":19.4335714,"End_Station_Lon":-99.1678091,"End_Colonia":"Cuauhtemoc"},"173":{"Total_Rides":137,"Start_Station":25,"End_Station":43,"Start_Station_Name":"25 REFORMA-ESTOCOLMO","Start_Station_Lat":19.427317,"Start_Station_Lon":-99.166662,"Start_Colonia":"Juarez","End_Station_Name":"43 JUAREZ-REVILLAGIGEDO","End_Station_Lat":19.435228,"End_Station_Lon":-99.146063,"End_Colonia":"Centro"},"174":{"Total_Rides":137,"Start_Station":213,"End_Station":210,"Start_Station_Name":"213 SOL\u00d3N-CICER\u00d3N","Start_Station_Lat":19.43432,"Start_Station_Lon":-99.20632,"Start_Colonia":"Polanco","End_Station_Name":"210 EUGENIO SUE-HORACIO ","End_Station_Lat":19.434076,"End_Station_Lon":-99.194091,"End_Colonia":"Polanco"},"175":{"Total_Rides":137,"Start_Station":212,"End_Station":217,"Start_Station_Name":"212 HEGEL-HORACIO ","Start_Station_Lat":19.433567,"Start_Station_Lon":-99.188096,"Start_Colonia":"Polanco","End_Station_Name":"217 EULER-AV. HORACIO ","End_Station_Lat":19.432888,"End_Station_Lon":-99.183605,"End_Colonia":"Polanco"},"176":{"Total_Rides":136,"Start_Station":66,"End_Station":66,"Start_Station_Name":"66 MAZATLAN-FRANCISCO MARQUEZ","Start_Station_Lat":19.411402,"Start_Station_Lon":-99.178666,"Start_Colonia":"Hipodromo Condesa","End_Station_Name":"66 MAZATLAN-FRANCISCO MARQUEZ","End_Station_Lat":19.411402,"End_Station_Lon":-99.178666,"End_Colonia":"Hipodromo Condesa"},"177":{"Total_Rides":136,"Start_Station":74,"End_Station":64,"Start_Station_Name":"74 NUEVO LEON-OZULAMA","Start_Station_Lat":19.410343,"Start_Station_Lon":-99.172831,"Start_Colonia":"Hipodromo","End_Station_Name":"64 SONORA-AMSTERDAM","End_Station_Lat":19.412877,"End_Station_Lon":-99.166986,"End_Colonia":"Hipodromo"},"178":{"Total_Rides":136,"Start_Station":36,"End_Station":74,"Start_Station_Name":"36 PUEBLA-VERACRUZ","Start_Station_Lat":19.419725,"Start_Station_Lon":-99.175778,"Start_Colonia":"Piedad Narvarte","End_Station_Name":"74 NUEVO LEON-OZULAMA","End_Station_Lat":19.410343,"End_Station_Lon":-99.172831,"End_Colonia":"Hipodromo"},"179":{"Total_Rides":136,"Start_Station":49,"End_Station":46,"Start_Station_Name":"49 MAZATLAN-JUAN DE LA BARRERA","Start_Station_Lat":19.416712,"Start_Station_Lon":-99.175704,"Start_Colonia":"Condesa","End_Station_Name":"46 DURANGO-SALAMANCA","End_Station_Lat":19.419214,"End_Station_Lon":-99.169732,"End_Colonia":"Roma Norte"},"180":{"Total_Rides":136,"Start_Station":43,"End_Station":87,"Start_Station_Name":"43 JUAREZ-REVILLAGIGEDO","Start_Station_Lat":19.435228,"Start_Station_Lon":-99.146063,"Start_Colonia":"Centro","End_Station_Name":"87 GANTE-VENUSTIANO CARRANZA","End_Station_Lat":19.43182,"End_Station_Lon":-99.13974,"End_Colonia":"Centro"},"181":{"Total_Rides":136,"Start_Station":87,"End_Station":48,"Start_Station_Name":"87 GANTE-VENUSTIANO CARRANZA","Start_Station_Lat":19.43182,"Start_Station_Lon":-99.13974,"Start_Colonia":"Centro","End_Station_Name":"48 INDEPENDENCIA-AZUETA","End_Station_Lat":19.433686,"End_Station_Lon":-99.146557,"End_Colonia":"Centro"},"182":{"Total_Rides":135,"Start_Station":27,"End_Station":16,"Start_Station_Name":"27 REFORMA-HAVRE","Start_Station_Lat":19.429115,"Start_Station_Lon":-99.162614,"Start_Colonia":"Juarez","End_Station_Name":"16 REFORMA-R\u00cdO TIBER","End_Station_Lat":19.427226,"End_Station_Lon":-99.168242,"End_Colonia":"Cuauhtemoc"},"183":{"Total_Rides":135,"Start_Station":208,"End_Station":241,"Start_Station_Name":"208 HESIODO-LAMARTINE ","Start_Station_Lat":19.434182,"Start_Station_Lon":-99.189835,"Start_Colonia":"Polanco","End_Station_Name":"E241 EJERCITO NAL-JUAN VAZQUEZ DE LA MELLA ","End_Station_Lat":19.43862,"End_Station_Lon":-99.20758,"End_Colonia":"Ampliacion Granada"},"184":{"Total_Rides":135,"Start_Station":141,"End_Station":126,"Start_Station_Name":"141 ZACATECAS-LUIS CABRERA","Start_Station_Lat":19.415905,"Start_Station_Lon":-99.15954,"Start_Colonia":"Roma Norte","End_Station_Name":"126 JALAPA-PUEBLA","End_Station_Lat":19.422288,"End_Station_Lon":-99.162138,"End_Colonia":"Roma Norte"},"185":{"Total_Rides":134,"Start_Station":27,"End_Station":10,"Start_Station_Name":"27 REFORMA-HAVRE","Start_Station_Lat":19.429115,"Start_Station_Lon":-99.162614,"Start_Colonia":"Juarez","End_Station_Name":"10 REFORMA-RAMIREZ","End_Station_Lat":19.433321,"End_Station_Lon":-99.154752,"End_Colonia":"Tabacalera"},"186":{"Total_Rides":134,"Start_Station":8,"End_Station":43,"Start_Station_Name":"8 REFORMA-GENERAL PRIM","Start_Station_Lat":19.431141,"Start_Station_Lon":-99.158317,"Start_Colonia":"Juarez","End_Station_Name":"43 JUAREZ-REVILLAGIGEDO","End_Station_Lat":19.435228,"End_Station_Lon":-99.146063,"End_Colonia":"Centro"},"187":{"Total_Rides":133,"Start_Station":36,"End_Station":72,"Start_Station_Name":"36 PUEBLA-VERACRUZ","Start_Station_Lat":19.419725,"Start_Station_Lon":-99.175778,"Start_Colonia":"Piedad Narvarte","End_Station_Name":"72 MAZATLAN-ALFONSO REYES","End_Station_Lat":19.409893,"End_Station_Lon":-99.179544,"End_Colonia":"Hipodromo Condesa"},"188":{"Total_Rides":133,"Start_Station":64,"End_Station":54,"Start_Station_Name":"64 SONORA-AMSTERDAM","Start_Station_Lat":19.412877,"Start_Station_Lon":-99.166986,"Start_Colonia":"Hipodromo","End_Station_Name":"54 PARQUE ESPA\u00d1A-SONORA","End_Station_Lat":19.416215,"End_Station_Lon":-99.170825,"End_Colonia":"Condesa"},"189":{"Total_Rides":133,"Start_Station":86,"End_Station":18,"Start_Station_Name":"86 SULLIVAN-INSURGENTES","Start_Station_Lat":19.432378,"Start_Station_Lon":-99.159077,"Start_Colonia":"San Rafael","End_Station_Name":"18 REFORMA-RIO RHIN","End_Station_Lat":19.42888,"End_Station_Lon":-99.164176,"End_Colonia":"Cuauhtemoc"},"190":{"Total_Rides":133,"Start_Station":41,"End_Station":27,"Start_Station_Name":"41 REFORMA-AV. DE LA REPUBLICA","Start_Station_Lat":19.435637,"Start_Station_Lon":-99.150137,"Start_Colonia":"Tabacalera","End_Station_Name":"27 REFORMA-HAVRE","End_Station_Lat":19.429115,"End_Station_Lon":-99.162614,"End_Colonia":"Juarez"},"191":{"Total_Rides":133,"Start_Station":154,"End_Station":146,"Start_Station_Name":"154 TUXPAN-TLAXCALA","Start_Station_Lat":19.406683,"Start_Station_Lon":-99.167962,"Start_Colonia":"Roma Sur","End_Station_Name":"146 COAHUILA-MANZANILLO","End_Station_Lat":19.410737,"End_Station_Lon":-99.165716,"End_Colonia":"Roma Norte"},"192":{"Total_Rides":133,"Start_Station":271,"End_Station":26,"Start_Station_Name":"271 AV. CENTRAL-J. MENESES ","Start_Station_Lat":19.443928,"Start_Station_Lon":-99.152525,"Start_Colonia":"Buenavista","End_Station_Name":"26 REFORMA-VERSALLES","End_Station_Lat":19.432685,"End_Station_Lon":-99.154726,"End_Colonia":"Juarez"},"193":{"Total_Rides":132,"Start_Station":64,"End_Station":74,"Start_Station_Name":"64 SONORA-AMSTERDAM","Start_Station_Lat":19.412877,"Start_Station_Lon":-99.166986,"Start_Colonia":"Hipodromo","End_Station_Name":"74 NUEVO LEON-OZULAMA","End_Station_Lat":19.410343,"End_Station_Lon":-99.172831,"End_Colonia":"Hipodromo"},"194":{"Total_Rides":132,"Start_Station":63,"End_Station":64,"Start_Station_Name":"63 NUEVO LEON- LAREDO","Start_Station_Lat":19.413681,"Start_Station_Lon":-99.171531,"Start_Colonia":"Condesa","End_Station_Name":"64 SONORA-AMSTERDAM","End_Station_Lat":19.412877,"End_Station_Lon":-99.166986,"End_Colonia":"Hipodromo"},"195":{"Total_Rides":132,"Start_Station":4,"End_Station":32,"Start_Station_Name":"4 RIO NILO-RIO PANUCO","Start_Station_Lat":19.428309,"Start_Station_Lon":-99.171713,"Start_Colonia":"Cuauhtemoc","End_Station_Name":"32 LONDRES-SEVILLA","End_Station_Lat":19.422705,"End_Station_Lon":-99.169922,"End_Colonia":"Juarez"},"196":{"Total_Rides":132,"Start_Station":134,"End_Station":126,"Start_Station_Name":"134 \u00c1LVARO OBREG\u00d3N-ORIZABA","Start_Station_Lat":19.418304,"Start_Station_Lon":-99.15956,"Start_Colonia":"Roma Norte","End_Station_Name":"126 JALAPA-PUEBLA","End_Station_Lat":19.422288,"End_Station_Lon":-99.162138,"End_Colonia":"Roma Norte"},"197":{"Total_Rides":131,"Start_Station":19,"End_Station":19,"Start_Station_Name":"19 REFORMA-RIO RHIN","Start_Station_Lat":19.429241,"Start_Station_Lon":-99.163377,"Start_Colonia":"Cuauhtemoc","End_Station_Name":"19 REFORMA-RIO RHIN","End_Station_Lat":19.429241,"End_Station_Lon":-99.163377,"End_Colonia":"Cuauhtemoc"},"198":{"Total_Rides":131,"Start_Station":41,"End_Station":16,"Start_Station_Name":"41 REFORMA-AV. DE LA REPUBLICA","Start_Station_Lat":19.435637,"Start_Station_Lon":-99.150137,"Start_Colonia":"Tabacalera","End_Station_Name":"16 REFORMA-R\u00cdO TIBER","End_Station_Lat":19.427226,"End_Station_Lon":-99.168242,"End_Colonia":"Cuauhtemoc"},"199":{"Total_Rides":131,"Start_Station":26,"End_Station":29,"Start_Station_Name":"26 REFORMA-VERSALLES","Start_Station_Lat":19.432685,"Start_Station_Lon":-99.154726,"Start_Colonia":"Juarez","End_Station_Name":"29 REFORMA-BUCARELI","End_Station_Lat":19.434913,"End_Station_Lon":-99.149939,"End_Colonia":"Centro"},"200":{"Total_Rides":130,"Start_Station":19,"End_Station":85,"Start_Station_Name":"19 REFORMA-RIO RHIN","Start_Station_Lat":19.429241,"Start_Station_Lon":-99.163377,"Start_Colonia":"Cuauhtemoc","End_Station_Name":"85 ROSAS MORENO-SULLIVAN","End_Station_Lat":19.43425,"End_Station_Lon":-99.162508,"End_Colonia":"San Rafael"},"201":{"Total_Rides":130,"Start_Station":1,"End_Station":11,"Start_Station_Name":"1 RIO SENA-RIO BALSAS","Start_Station_Lat":19.4335714,"Start_Station_Lon":-99.1678091,"Start_Colonia":"Cuauhtemoc","End_Station_Name":"11 RIO AMAZONAS-RIO LERMA","End_Station_Lat":19.430992,"End_Station_Lon":-99.163593,"End_Colonia":"Cuauhtemoc"},"202":{"Total_Rides":130,"Start_Station":64,"End_Station":38,"Start_Station_Name":"64 SONORA-AMSTERDAM","Start_Station_Lat":19.412877,"Start_Station_Lon":-99.166986,"Start_Colonia":"Hipodromo","End_Station_Name":"38 COZUMEL-PUEBLA","End_Station_Lat":19.420801,"End_Station_Lon":-99.171407,"End_Colonia":"Roma Norte"},"203":{"Total_Rides":130,"Start_Station":11,"End_Station":1,"Start_Station_Name":"11 RIO AMAZONAS-RIO LERMA","Start_Station_Lat":19.430992,"Start_Station_Lon":-99.163593,"Start_Colonia":"Cuauhtemoc","End_Station_Name":"1 RIO SENA-RIO BALSAS","End_Station_Lat":19.4335714,"End_Station_Lon":-99.1678091,"End_Colonia":"Cuauhtemoc"},"204":{"Total_Rides":130,"Start_Station":10,"End_Station":19,"Start_Station_Name":"10 REFORMA-RAMIREZ","Start_Station_Lat":19.433321,"Start_Station_Lon":-99.154752,"Start_Colonia":"Tabacalera","End_Station_Name":"19 REFORMA-RIO RHIN","End_Station_Lat":19.429241,"End_Station_Lon":-99.163377,"End_Colonia":"Cuauhtemoc"},"205":{"Total_Rides":130,"Start_Station":211,"End_Station":246,"Start_Station_Name":"211 NEWTON-HORACIO","Start_Station_Lat":19.433607,"Start_Station_Lon":-99.188528,"Start_Colonia":"Polanco","End_Station_Name":"246 LEIBNITZ-THIERS","End_Station_Lat":19.434147,"End_Station_Lon":-99.179835,"End_Colonia":"Anzures"},"206":{"Total_Rides":129,"Start_Station":35,"End_Station":25,"Start_Station_Name":"35 LIVERPOOL-GENOVA","Start_Station_Lat":19.424674,"Start_Station_Lon":-99.163292,"Start_Colonia":"Juarez","End_Station_Name":"25 REFORMA-ESTOCOLMO","End_Station_Lat":19.427317,"End_Station_Lon":-99.166662,"End_Colonia":"Juarez"},"207":{"Total_Rides":129,"Start_Station":33,"End_Station":33,"Start_Station_Name":"E33 LONDRES-FLORENCIA","Start_Station_Lat":19.424234,"Start_Station_Lon":-99.166431,"Start_Colonia":"Juarez","End_Station_Name":"E33 LONDRES-FLORENCIA","End_Station_Lat":19.424234,"End_Station_Lon":-99.166431,"End_Colonia":"Juarez"},"208":{"Total_Rides":129,"Start_Station":163,"End_Station":162,"Start_Station_Name":"163 TOLUCA-BAJ\u00cdO","Start_Station_Lat":19.405246,"Start_Station_Lon":-99.156431,"Start_Colonia":"Roma Sur","End_Station_Name":"162 TEHUANTEPEC-MEDELL\u00cdN","End_Station_Lat":19.404907,"End_Station_Lon":-99.162485,"End_Colonia":"Roma Sur"},"209":{"Total_Rides":128,"Start_Station":34,"End_Station":17,"Start_Station_Name":"34 LIVERPOOL-GENOVA","Start_Station_Lat":19.424725,"Start_Station_Lon":-99.163331,"Start_Colonia":"Juarez","End_Station_Name":"17 REFORMA-RIO TIBER","End_Station_Lat":19.427501,"End_Station_Lon":-99.167125,"End_Colonia":"Cuauhtemoc"},"210":{"Total_Rides":128,"Start_Station":2,"End_Station":9,"Start_Station_Name":"2 RIO GUADALQUIVIR-RIO BALSAS","Start_Station_Lat":19.431386,"Start_Station_Lon":-99.171695,"Start_Colonia":"Cuauhtemoc","End_Station_Name":"9 RIO GUADALQUIVIR-RIO LERMA","End_Station_Lat":19.428009,"End_Station_Lon":-99.169918,"End_Colonia":"Cuauhtemoc"},"211":{"Total_Rides":127,"Start_Station":74,"End_Station":74,"Start_Station_Name":"74 NUEVO LEON-OZULAMA","Start_Station_Lat":19.410343,"Start_Station_Lon":-99.172831,"Start_Colonia":"Hipodromo","End_Station_Name":"74 NUEVO LEON-OZULAMA","End_Station_Lat":19.410343,"End_Station_Lon":-99.172831,"End_Colonia":"Hipodromo"},"212":{"Total_Rides":127,"Start_Station":59,"End_Station":59,"Start_Station_Name":"59 POPOCATEPETL-AMSTERDAM","Start_Station_Lat":19.415121,"Start_Station_Lon":-99.166661,"Start_Colonia":"Hipodromo","End_Station_Name":"59 POPOCATEPETL-AMSTERDAM","End_Station_Lat":19.415121,"End_Station_Lon":-99.166661,"End_Colonia":"Hipodromo"},"213":{"Total_Rides":127,"Start_Station":16,"End_Station":13,"Start_Station_Name":"16 REFORMA-R\u00cdO TIBER","Start_Station_Lat":19.427226,"Start_Station_Lon":-99.168242,"Start_Colonia":"Cuauhtemoc","End_Station_Name":"13 REFORMA-RIO MISSISSIPPI","End_Station_Lat":19.42502,"End_Station_Lon":-99.17231,"End_Colonia":"Cuauhtemoc"},"214":{"Total_Rides":127,"Start_Station":28,"End_Station":28,"Start_Station_Name":"28 TOLEDO-TOKIO","Start_Station_Lat":19.423542,"Start_Station_Lon":-99.172494,"Start_Colonia":"Juarez","End_Station_Name":"28 TOLEDO-TOKIO","End_Station_Lat":19.423542,"End_Station_Lon":-99.172494,"End_Colonia":"Juarez"},"215":{"Total_Rides":127,"Start_Station":241,"End_Station":208,"Start_Station_Name":"E241 EJERCITO NAL-JUAN VAZQUEZ DE LA MELLA ","Start_Station_Lat":19.43862,"Start_Station_Lon":-99.20758,"Start_Colonia":"Ampliacion Granada","End_Station_Name":"208 HESIODO-LAMARTINE ","End_Station_Lat":19.434182,"End_Station_Lon":-99.189835,"End_Colonia":"Polanco"},"216":{"Total_Rides":127,"Start_Station":135,"End_Station":134,"Start_Station_Name":"135 \u00c1LVARO OBREG\u00d3N-MORELIA","Start_Station_Lat":19.419225,"Start_Station_Lon":-99.155099,"Start_Colonia":"Roma Norte","End_Station_Name":"134 \u00c1LVARO OBREG\u00d3N-ORIZABA","End_Station_Lat":19.418304,"End_Station_Lon":-99.15956,"End_Colonia":"Roma Norte"},"217":{"Total_Rides":127,"Start_Station":271,"End_Station":10,"Start_Station_Name":"271 AV. CENTRAL-J. MENESES ","Start_Station_Lat":19.443928,"Start_Station_Lon":-99.152525,"Start_Colonia":"Buenavista","End_Station_Name":"10 REFORMA-RAMIREZ","End_Station_Lat":19.433321,"End_Station_Lon":-99.154752,"End_Colonia":"Tabacalera"},"218":{"Total_Rides":127,"Start_Station":271,"End_Station":19,"Start_Station_Name":"271 AV. CENTRAL-J. MENESES ","Start_Station_Lat":19.443928,"Start_Station_Lon":-99.152525,"Start_Colonia":"Buenavista","End_Station_Name":"19 REFORMA-RIO RHIN","End_Station_Lat":19.429241,"End_Station_Lon":-99.163377,"End_Colonia":"Cuauhtemoc"},"219":{"Total_Rides":126,"Start_Station":27,"End_Station":28,"Start_Station_Name":"27 REFORMA-HAVRE","Start_Station_Lat":19.429115,"Start_Station_Lon":-99.162614,"Start_Colonia":"Juarez","End_Station_Name":"28 TOLEDO-TOKIO","End_Station_Lat":19.423542,"End_Station_Lon":-99.172494,"End_Colonia":"Juarez"},"220":{"Total_Rides":126,"Start_Station":6,"End_Station":1,"Start_Station_Name":"6 RIO PANUCO-RIO SENA","Start_Station_Lat":19.430922,"Start_Station_Lon":-99.166959,"Start_Colonia":"Cuauhtemoc","End_Station_Name":"1 RIO SENA-RIO BALSAS","End_Station_Lat":19.4335714,"End_Station_Lon":-99.1678091,"End_Colonia":"Cuauhtemoc"},"221":{"Total_Rides":126,"Start_Station":38,"End_Station":45,"Start_Station_Name":"38 COZUMEL-PUEBLA","Start_Station_Lat":19.420801,"Start_Station_Lon":-99.171407,"Start_Colonia":"Roma Norte","End_Station_Name":"45 DURANGO-SONORA","End_Station_Lat":19.418649,"End_Station_Lon":-99.172127,"End_Colonia":"Roma Norte"},"222":{"Total_Rides":126,"Start_Station":64,"End_Station":37,"Start_Station_Name":"64 SONORA-AMSTERDAM","Start_Station_Lat":19.412877,"Start_Station_Lon":-99.166986,"Start_Colonia":"Hipodromo","End_Station_Name":"37 GUADALAJARA-PUEBLA","End_Station_Lat":19.420419,"End_Station_Lon":-99.172676,"End_Colonia":"Roma Norte"},"223":{"Total_Rides":126,"Start_Station":21,"End_Station":25,"Start_Station_Name":"21 REFORMA-DUBLIN","Start_Station_Lat":19.42472,"Start_Station_Lon":-99.17206,"Start_Colonia":"Juarez","End_Station_Name":"25 REFORMA-ESTOCOLMO","End_Station_Lat":19.427317,"End_Station_Lon":-99.166662,"End_Colonia":"Juarez"},"224":{"Total_Rides":126,"Start_Station":32,"End_Station":2,"Start_Station_Name":"32 LONDRES-SEVILLA","Start_Station_Lat":19.422705,"Start_Station_Lon":-99.169922,"Start_Colonia":"Juarez","End_Station_Name":"2 RIO GUADALQUIVIR-RIO BALSAS","End_Station_Lat":19.431386,"End_Station_Lon":-99.171695,"End_Colonia":"Cuauhtemoc"},"225":{"Total_Rides":126,"Start_Station":76,"End_Station":59,"Start_Station_Name":"76 CHILPANCINGO-CAMPECHE","Start_Station_Lat":19.408736,"Start_Station_Lon":-99.169913,"Start_Colonia":"Hipodromo","End_Station_Name":"59 POPOCATEPETL-AMSTERDAM","End_Station_Lat":19.415121,"End_Station_Lon":-99.166661,"End_Colonia":"Hipodromo"},"226":{"Total_Rides":126,"Start_Station":136,"End_Station":136,"Start_Station_Name":"136 \u00c1LVARO OBREG\u00d3N-TONAL\u00c1","Start_Station_Lat":19.417715,"Start_Station_Lon":-99.162729,"Start_Colonia":"Roma Norte","End_Station_Name":"136 \u00c1LVARO OBREG\u00d3N-TONAL\u00c1","End_Station_Lat":19.417715,"End_Station_Lon":-99.162729,"End_Colonia":"Roma Norte"},"227":{"Total_Rides":126,"Start_Station":244,"End_Station":197,"Start_Station_Name":"244 MIGUEL DE CERVANTES SAAVEDRA-LAGO VICTORIA ","Start_Station_Lat":19.440885,"Start_Station_Lon":-99.193315,"Start_Colonia":"Granada","End_Station_Name":"197 MIGUEL DE CERVANTES-FC DE CUERNAVACA","End_Station_Lat":19.440077,"End_Station_Lon":-99.204316,"End_Colonia":"Granada"},"228":{"Total_Rides":126,"Start_Station":41,"End_Station":266,"Start_Station_Name":"41 REFORMA-AV. DE LA REPUBLICA","Start_Station_Lat":19.435637,"Start_Station_Lon":-99.150137,"Start_Colonia":"Tabacalera","End_Station_Name":"266 AV. JES\u00daS GARCIA-CARLOS J. MENESES ","End_Station_Lat":19.444031,"End_Station_Lon":-99.152187,"End_Colonia":"Buenavista"},"229":{"Total_Rides":125,"Start_Station":6,"End_Station":6,"Start_Station_Name":"6 RIO PANUCO-RIO SENA","Start_Station_Lat":19.430922,"Start_Station_Lon":-99.166959,"Start_Colonia":"Cuauhtemoc","End_Station_Name":"6 RIO PANUCO-RIO SENA","End_Station_Lat":19.430922,"End_Station_Lon":-99.166959,"End_Colonia":"Cuauhtemoc"},"230":{"Total_Rides":125,"Start_Station":57,"End_Station":57,"Start_Station_Name":"57 CUERNAVACA-JUAN ESCUTIA","Start_Station_Lat":19.414903,"Start_Station_Lon":-99.17495,"Start_Colonia":"Condesa","End_Station_Name":"57 CUERNAVACA-JUAN ESCUTIA","End_Station_Lat":19.414903,"End_Station_Lon":-99.17495,"End_Colonia":"Condesa"},"231":{"Total_Rides":125,"Start_Station":28,"End_Station":24,"Start_Station_Name":"28 TOLEDO-TOKIO","Start_Station_Lat":19.423542,"Start_Station_Lon":-99.172494,"Start_Colonia":"Juarez","End_Station_Name":"24 REFORMA-VARSOVIA","End_Station_Lat":19.42647,"End_Station_Lon":-99.16822,"End_Colonia":"Juarez"},"232":{"Total_Rides":124,"Start_Station":17,"End_Station":1,"Start_Station_Name":"17 REFORMA-RIO TIBER","Start_Station_Lat":19.427501,"Start_Station_Lon":-99.167125,"Start_Colonia":"Cuauhtemoc","End_Station_Name":"1 RIO SENA-RIO BALSAS","End_Station_Lat":19.4335714,"End_Station_Lon":-99.1678091,"End_Colonia":"Cuauhtemoc"},"233":{"Total_Rides":124,"Start_Station":73,"End_Station":73,"Start_Station_Name":"73 CAMPECHE-TAMAULIPAS","Start_Station_Lat":19.410245,"Start_Station_Lon":-99.175612,"Start_Colonia":"Hipodromo Condesa","End_Station_Name":"73 CAMPECHE-TAMAULIPAS","End_Station_Lat":19.410245,"End_Station_Lon":-99.175612,"End_Colonia":"Hipodromo Condesa"},"234":{"Total_Rides":124,"Start_Station":19,"End_Station":15,"Start_Station_Name":"19 REFORMA-RIO RHIN","Start_Station_Lat":19.429241,"Start_Station_Lon":-99.163377,"Start_Colonia":"Cuauhtemoc","End_Station_Name":"15 REFORMA-RIO MISSISSIPPI","End_Station_Lat":19.425477,"End_Station_Lon":-99.171567,"End_Colonia":"Cuauhtemoc"},"235":{"Total_Rides":124,"Start_Station":198,"End_Station":208,"Start_Station_Name":"198 S\u00d3CRATES-EJERCITO NACIONAL ","Start_Station_Lat":19.438168,"Start_Station_Lon":-99.203888,"Start_Colonia":"Polanco","End_Station_Name":"208 HESIODO-LAMARTINE ","End_Station_Lat":19.434182,"End_Station_Lon":-99.189835,"End_Colonia":"Polanco"},"236":{"Total_Rides":124,"Start_Station":189,"End_Station":185,"Start_Station_Name":"189 GDOR RAFAEL REBOLLAR-GDOR JOS\u00c9 CEBALLOS","Start_Station_Lat":19.41004,"Start_Station_Lon":-99.18798,"Start_Colonia":"San Miguel Chapultepec ","End_Station_Name":"185 GRAL ANTONIO L\u00c9ON-GRAL PEDRO A DE LOS S.","End_Station_Lat":19.4128,"End_Station_Lon":-99.1828,"End_Colonia":"San Miguel Chapultepec "},"237":{"Total_Rides":124,"Start_Station":185,"End_Station":186,"Start_Station_Name":"185 GRAL ANTONIO L\u00c9ON-GRAL PEDRO A DE LOS S.","Start_Station_Lat":19.4128,"Start_Station_Lon":-99.1828,"Start_Colonia":"San Miguel Chapultepec ","End_Station_Name":"186 GREGORIO V GELATI-FRANCISCO MOLINOS DEL C","End_Station_Lat":19.4124291,"End_Station_Lon":-99.1885117,"End_Colonia":"San Miguel Chapultepec "},"238":{"Total_Rides":124,"Start_Station":108,"End_Station":113,"Start_Station_Name":"E108 TOLSA-BALDERAS","Start_Station_Lat":19.427305,"Start_Station_Lon":-99.149533,"Start_Colonia":"Centro","End_Station_Name":"113 GENERAL PRIM-VERSALLES","End_Station_Lat":19.430369,"End_Station_Lon":-99.154419,"End_Colonia":"Juarez"},"239":{"Total_Rides":123,"Start_Station":45,"End_Station":45,"Start_Station_Name":"45 DURANGO-SONORA","Start_Station_Lat":19.418649,"Start_Station_Lon":-99.172127,"Start_Colonia":"Roma Norte","End_Station_Name":"45 DURANGO-SONORA","End_Station_Lat":19.418649,"End_Station_Lon":-99.172127,"End_Colonia":"Roma Norte"},"240":{"Total_Rides":123,"Start_Station":66,"End_Station":36,"Start_Station_Name":"66 MAZATLAN-FRANCISCO MARQUEZ","Start_Station_Lat":19.411402,"Start_Station_Lon":-99.178666,"Start_Colonia":"Hipodromo Condesa","End_Station_Name":"36 PUEBLA-VERACRUZ","End_Station_Lat":19.419725,"End_Station_Lon":-99.175778,"End_Colonia":"Piedad Narvarte"},"241":{"Total_Rides":123,"Start_Station":213,"End_Station":208,"Start_Station_Name":"213 SOL\u00d3N-CICER\u00d3N","Start_Station_Lat":19.43432,"Start_Station_Lon":-99.20632,"Start_Colonia":"Polanco","End_Station_Name":"208 HESIODO-LAMARTINE ","End_Station_Lat":19.434182,"End_Station_Lon":-99.189835,"End_Colonia":"Polanco"},"242":{"Total_Rides":123,"Start_Station":211,"End_Station":248,"Start_Station_Name":"211 NEWTON-HORACIO","Start_Station_Lat":19.433607,"Start_Station_Lon":-99.188528,"Start_Colonia":"Polanco","End_Station_Name":"248 SHAKESPEARE-LAFAYETTE ","End_Station_Lat":19.43175,"End_Station_Lon":-99.177399,"End_Colonia":"Anzures"},"243":{"Total_Rides":123,"Start_Station":126,"End_Station":136,"Start_Station_Name":"126 JALAPA-PUEBLA","Start_Station_Lat":19.422288,"Start_Station_Lon":-99.162138,"Start_Colonia":"Roma Norte","End_Station_Name":"136 \u00c1LVARO OBREG\u00d3N-TONAL\u00c1","End_Station_Lat":19.417715,"End_Station_Lon":-99.162729,"End_Colonia":"Roma Norte"},"244":{"Total_Rides":123,"Start_Station":162,"End_Station":163,"Start_Station_Name":"162 TEHUANTEPEC-MEDELL\u00cdN","Start_Station_Lat":19.404907,"Start_Station_Lon":-99.162485,"Start_Colonia":"Roma Sur","End_Station_Name":"163 TOLUCA-BAJ\u00cdO","End_Station_Lat":19.405246,"End_Station_Lon":-99.156431,"End_Colonia":"Roma Sur"},"245":{"Total_Rides":123,"Start_Station":27,"End_Station":271,"Start_Station_Name":"27 REFORMA-HAVRE","Start_Station_Lat":19.429115,"Start_Station_Lon":-99.162614,"Start_Colonia":"Juarez","End_Station_Name":"271 AV. CENTRAL-J. MENESES ","End_Station_Lat":19.443928,"End_Station_Lon":-99.152525,"End_Colonia":"Buenavista"},"246":{"Total_Rides":122,"Start_Station":11,"End_Station":11,"Start_Station_Name":"11 RIO AMAZONAS-RIO LERMA","Start_Station_Lat":19.430992,"Start_Station_Lon":-99.163593,"Start_Colonia":"Cuauhtemoc","End_Station_Name":"11 RIO AMAZONAS-RIO LERMA","End_Station_Lat":19.430992,"End_Station_Lon":-99.163593,"End_Colonia":"Cuauhtemoc"},"247":{"Total_Rides":122,"Start_Station":30,"End_Station":1,"Start_Station_Name":"30 HAMBURGO-GENOVA","Start_Station_Lat":19.426442,"Start_Station_Lon":-99.164323,"Start_Colonia":"Juarez","End_Station_Name":"1 RIO SENA-RIO BALSAS","End_Station_Lat":19.4335714,"End_Station_Lon":-99.1678091,"End_Colonia":"Cuauhtemoc"},"248":{"Total_Rides":122,"Start_Station":237,"End_Station":235,"Start_Station_Name":"237 ANDR\u00c9S BELLO-ELLIOT ","Start_Station_Lat":19.426744,"Start_Station_Lon":-99.193986,"Start_Colonia":"Polanco","End_Station_Name":"235 CAMPOS ELISEOS-MOLIERE ","End_Station_Lat":19.42933,"End_Station_Lon":-99.20218,"End_Colonia":"Polanco"},"249":{"Total_Rides":121,"Start_Station":23,"End_Station":23,"Start_Station_Name":"23 REFORMA-PRAGA","Start_Station_Lat":19.42517,"Start_Station_Lon":-99.17105,"Start_Colonia":"Juarez","End_Station_Name":"23 REFORMA-PRAGA","End_Station_Lat":19.42517,"End_Station_Lon":-99.17105,"End_Colonia":"Juarez"},"250":{"Total_Rides":121,"Start_Station":194,"End_Station":194,"Start_Station_Name":"194 CTO MAHATMA GANDHI-AV. PASEO DE LA REFORMA","Start_Station_Lat":19.424282,"Start_Station_Lon":-99.180334,"Start_Colonia":"Bosque de Chapultepec","End_Station_Name":"194 CTO MAHATMA GANDHI-AV. PASEO DE LA REFORMA","End_Station_Lat":19.424282,"End_Station_Lon":-99.180334,"End_Colonia":"Bosque de Chapultepec"},"251":{"Total_Rides":121,"Start_Station":126,"End_Station":134,"Start_Station_Name":"126 JALAPA-PUEBLA","Start_Station_Lat":19.422288,"Start_Station_Lon":-99.162138,"Start_Colonia":"Roma Norte","End_Station_Name":"134 \u00c1LVARO OBREG\u00d3N-ORIZABA","End_Station_Lat":19.418304,"End_Station_Lon":-99.15956,"End_Colonia":"Roma Norte"},"252":{"Total_Rides":121,"Start_Station":18,"End_Station":266,"Start_Station_Name":"18 REFORMA-RIO RHIN","Start_Station_Lat":19.42888,"Start_Station_Lon":-99.164176,"Start_Colonia":"Cuauhtemoc","End_Station_Name":"266 AV. JES\u00daS GARCIA-CARLOS J. MENESES ","End_Station_Lat":19.444031,"End_Station_Lon":-99.152187,"End_Colonia":"Buenavista"},"253":{"Total_Rides":120,"Start_Station":4,"End_Station":27,"Start_Station_Name":"4 RIO NILO-RIO PANUCO","Start_Station_Lat":19.428309,"Start_Station_Lon":-99.171713,"Start_Colonia":"Cuauhtemoc","End_Station_Name":"27 REFORMA-HAVRE","End_Station_Lat":19.429115,"End_Station_Lon":-99.162614,"End_Colonia":"Juarez"},"254":{"Total_Rides":120,"Start_Station":9,"End_Station":1,"Start_Station_Name":"9 RIO GUADALQUIVIR-RIO LERMA","Start_Station_Lat":19.428009,"Start_Station_Lon":-99.169918,"Start_Colonia":"Cuauhtemoc","End_Station_Name":"1 RIO SENA-RIO BALSAS","End_Station_Lat":19.4335714,"End_Station_Lon":-99.1678091,"End_Colonia":"Cuauhtemoc"},"255":{"Total_Rides":120,"Start_Station":59,"End_Station":71,"Start_Station_Name":"59 POPOCATEPETL-AMSTERDAM","Start_Station_Lat":19.415121,"Start_Station_Lon":-99.166661,"Start_Colonia":"Hipodromo","End_Station_Name":"71 AMSTERDAM-MICHOACAN","End_Station_Lat":19.411423,"End_Station_Lon":-99.171351,"End_Colonia":"Hipodromo"},"256":{"Total_Rides":120,"Start_Station":49,"End_Station":66,"Start_Station_Name":"49 MAZATLAN-JUAN DE LA BARRERA","Start_Station_Lat":19.416712,"Start_Station_Lon":-99.175704,"Start_Colonia":"Condesa","End_Station_Name":"66 MAZATLAN-FRANCISCO MARQUEZ","End_Station_Lat":19.411402,"End_Station_Lon":-99.178666,"End_Colonia":"Hipodromo Condesa"},"257":{"Total_Rides":120,"Start_Station":27,"End_Station":14,"Start_Station_Name":"27 REFORMA-HAVRE","Start_Station_Lat":19.429115,"Start_Station_Lon":-99.162614,"Start_Colonia":"Juarez","End_Station_Name":"14 REFORMA-RIO DE PLATA","End_Station_Lat":19.424768,"End_Station_Lon":-99.173261,"End_Colonia":"Cuauhtemoc"},"258":{"Total_Rides":120,"Start_Station":1,"End_Station":30,"Start_Station_Name":"1 RIO SENA-RIO BALSAS","Start_Station_Lat":19.4335714,"Start_Station_Lon":-99.1678091,"Start_Colonia":"Cuauhtemoc","End_Station_Name":"30 HAMBURGO-GENOVA","End_Station_Lat":19.426442,"End_Station_Lon":-99.164323,"End_Colonia":"Juarez"},"259":{"Total_Rides":120,"Start_Station":23,"End_Station":31,"Start_Station_Name":"23 REFORMA-PRAGA","Start_Station_Lat":19.42517,"Start_Station_Lon":-99.17105,"Start_Colonia":"Juarez","End_Station_Name":"31 HAMBURGO-INSURGENTES","End_Station_Lat":19.427838,"End_Station_Lon":-99.161193,"End_Colonia":"Juarez"},"260":{"Total_Rides":120,"Start_Station":217,"End_Station":208,"Start_Station_Name":"217 EULER-AV. HORACIO ","Start_Station_Lat":19.432888,"Start_Station_Lon":-99.183605,"Start_Colonia":"Polanco","End_Station_Name":"208 HESIODO-LAMARTINE ","End_Station_Lat":19.434182,"End_Station_Lon":-99.189835,"End_Colonia":"Polanco"},"261":{"Total_Rides":120,"Start_Station":96,"End_Station":96,"Start_Station_Name":"96 LOPEZ-AYUNTAMIENTO","Start_Station_Lat":19.430625,"Start_Station_Lon":-99.14248,"Start_Colonia":"Centro","End_Station_Name":"96 LOPEZ-AYUNTAMIENTO","End_Station_Lat":19.430625,"End_Station_Lon":-99.14248,"End_Colonia":"Centro"},"262":{"Total_Rides":120,"Start_Station":168,"End_Station":182,"Start_Station_Name":"168 COMERCIO-PROGRESO","Start_Station_Lat":19.403997,"Start_Station_Lon":-99.1776,"Start_Colonia":"Escandon","End_Station_Name":"182 PROGRESO-ASTRONOMOS","End_Station_Lat":19.402089,"End_Station_Lon":-99.17139,"End_Colonia":"Hipodromo"},"263":{"Total_Rides":120,"Start_Station":359,"End_Station":357,"Start_Station_Name":"359 MATIAS ROMERO -PESTALLOZZI","Start_Station_Lat":19.379269,"Start_Station_Lon":-99.161169,"Start_Colonia":"Del Valle Centro","End_Station_Name":"357 MATIAS ROMERO -AMORES","End_Station_Lat":19.380598,"End_Station_Lon":-99.1669248,"End_Colonia":"Del Valle Centro"},"264":{"Total_Rides":119,"Start_Station":186,"End_Station":185,"Start_Station_Name":"186 GREGORIO V GELATI-FRANCISCO MOLINOS DEL C","Start_Station_Lat":19.4124291,"Start_Station_Lon":-99.1885117,"Start_Colonia":"San Miguel Chapultepec ","End_Station_Name":"185 GRAL ANTONIO L\u00c9ON-GRAL PEDRO A DE LOS S.","End_Station_Lat":19.4128,"End_Station_Lon":-99.1828,"End_Colonia":"San Miguel Chapultepec "},"265":{"Total_Rides":118,"Start_Station":84,"End_Station":84,"Start_Station_Name":"84 CHILPANCINGO-TLAXCALA","Start_Station_Lat":19.40702,"Start_Station_Lon":-99.169587,"Start_Colonia":"Hipodromo","End_Station_Name":"84 CHILPANCINGO-TLAXCALA","End_Station_Lat":19.40702,"End_Station_Lon":-99.169587,"End_Colonia":"Hipodromo"},"266":{"Total_Rides":118,"Start_Station":7,"End_Station":27,"Start_Station_Name":"7 RIO ELBA-RIO LERMA","Start_Station_Lat":19.425468,"Start_Station_Lon":-99.175166,"Start_Colonia":"Cuauhtemoc","End_Station_Name":"27 REFORMA-HAVRE","End_Station_Lat":19.429115,"End_Station_Lon":-99.162614,"End_Colonia":"Juarez"},"267":{"Total_Rides":118,"Start_Station":32,"End_Station":9,"Start_Station_Name":"32 LONDRES-SEVILLA","Start_Station_Lat":19.422705,"Start_Station_Lon":-99.169922,"Start_Colonia":"Juarez","End_Station_Name":"9 RIO GUADALQUIVIR-RIO LERMA","End_Station_Lat":19.428009,"End_Station_Lon":-99.169918,"End_Colonia":"Cuauhtemoc"},"268":{"Total_Rides":118,"Start_Station":183,"End_Station":256,"Start_Station_Name":"183 GABINO BARRERA-GUILLERMO PRIETO","Start_Station_Lat":19.43767,"Start_Station_Lon":-99.16402,"Start_Colonia":"San Rafael","End_Station_Name":"256 G\u00d3MEZ FAR\u00cdAS-SADI CARNOT ","End_Station_Lat":19.4372,"End_Station_Lon":-99.15816,"End_Colonia":"San Rafael"},"269":{"Total_Rides":118,"Start_Station":119,"End_Station":113,"Start_Station_Name":"119 TUR\u00cdN-ABRAHAM GONZ\u00c1LEZ","Start_Station_Lat":19.42679,"Start_Station_Lon":-99.15554,"Start_Colonia":"Juarez","End_Station_Name":"113 GENERAL PRIM-VERSALLES","End_Station_Lat":19.430369,"End_Station_Lon":-99.154419,"End_Colonia":"Juarez"},"270":{"Total_Rides":118,"Start_Station":169,"End_Station":182,"Start_Station_Name":"169 PROSPERIDAD-PROGRESO","Start_Station_Lat":19.403019,"Start_Station_Lon":-99.174934,"Start_Colonia":"Escandon","End_Station_Name":"182 PROGRESO-ASTRONOMOS","End_Station_Lat":19.402089,"End_Station_Lon":-99.17139,"End_Colonia":"Hipodromo"},"271":{"Total_Rides":118,"Start_Station":180,"End_Station":175,"Start_Station_Name":"180 QUINTANA ROO-VILLA HERMOSA","Start_Station_Lat":19.404554,"Start_Station_Lon":-99.169953,"Start_Colonia":"Hipodromo","End_Station_Name":"E175 MUTUALISMO-JOS\u00c9 MART\u00ed","End_Station_Lat":19.400767,"End_Station_Lon":-99.172533,"End_Colonia":"Escandon"},"272":{"Total_Rides":118,"Start_Station":10,"End_Station":266,"Start_Station_Name":"10 REFORMA-RAMIREZ","Start_Station_Lat":19.433321,"Start_Station_Lon":-99.154752,"Start_Colonia":"Tabacalera","End_Station_Name":"266 AV. JES\u00daS GARCIA-CARLOS J. MENESES ","End_Station_Lat":19.444031,"End_Station_Lon":-99.152187,"End_Colonia":"Buenavista"},"273":{"Total_Rides":117,"Start_Station":10,"End_Station":16,"Start_Station_Name":"10 REFORMA-RAMIREZ","Start_Station_Lat":19.433321,"Start_Station_Lon":-99.154752,"Start_Colonia":"Tabacalera","End_Station_Name":"16 REFORMA-R\u00cdO TIBER","End_Station_Lat":19.427226,"End_Station_Lon":-99.168242,"End_Colonia":"Cuauhtemoc"},"274":{"Total_Rides":117,"Start_Station":44,"End_Station":44,"Start_Station_Name":"44 DURANGO-VERACRUZ","Start_Station_Lat":19.418057,"Start_Station_Lon":-99.174761,"Start_Colonia":"Roma Norte","End_Station_Name":"44 DURANGO-VERACRUZ","End_Station_Lat":19.418057,"End_Station_Lon":-99.174761,"End_Colonia":"Roma Norte"},"275":{"Total_Rides":117,"Start_Station":21,"End_Station":29,"Start_Station_Name":"21 REFORMA-DUBLIN","Start_Station_Lat":19.42472,"Start_Station_Lon":-99.17206,"Start_Colonia":"Juarez","End_Station_Name":"29 REFORMA-BUCARELI","End_Station_Lat":19.434913,"End_Station_Lon":-99.149939,"End_Colonia":"Centro"},"276":{"Total_Rides":117,"Start_Station":270,"End_Station":270,"Start_Station_Name":"270 DE LA REPUBLICA-PONCIANO ARRIAGA ","Start_Station_Lat":19.43676,"Start_Station_Lon":-99.15387,"Start_Colonia":"Tabacalera","End_Station_Name":"270 DE LA REPUBLICA-PONCIANO ARRIAGA ","End_Station_Lat":19.43676,"End_Station_Lon":-99.15387,"End_Colonia":"Tabacalera"},"277":{"Total_Rides":117,"Start_Station":52,"End_Station":266,"Start_Station_Name":"52 HIDALGO-TRUJANO","Start_Station_Lat":19.436236,"Start_Station_Lon":-99.142039,"Start_Colonia":"Centro","End_Station_Name":"266 AV. JES\u00daS GARCIA-CARLOS J. MENESES ","End_Station_Lat":19.444031,"End_Station_Lon":-99.152187,"End_Colonia":"Buenavista"},"278":{"Total_Rides":116,"Start_Station":20,"End_Station":13,"Start_Station_Name":"20 REFORMA-RIO TAMESIS","Start_Station_Lat":19.430964,"Start_Station_Lon":-99.160206,"Start_Colonia":"Cuauhtemoc","End_Station_Name":"13 REFORMA-RIO MISSISSIPPI","End_Station_Lat":19.42502,"End_Station_Lon":-99.17231,"End_Colonia":"Cuauhtemoc"},"279":{"Total_Rides":116,"Start_Station":27,"End_Station":6,"Start_Station_Name":"27 REFORMA-HAVRE","Start_Station_Lat":19.429115,"Start_Station_Lon":-99.162614,"Start_Colonia":"Juarez","End_Station_Name":"6 RIO PANUCO-RIO SENA","End_Station_Lat":19.430922,"End_Station_Lon":-99.166959,"End_Colonia":"Cuauhtemoc"},"280":{"Total_Rides":116,"Start_Station":62,"End_Station":36,"Start_Station_Name":"62 FERNANDO MONTES DE OCA-AMATLAN","Start_Station_Lat":19.413322,"Start_Station_Lon":-99.175202,"Start_Colonia":"Condesa","End_Station_Name":"36 PUEBLA-VERACRUZ","End_Station_Lat":19.419725,"End_Station_Lon":-99.175778,"End_Colonia":"Piedad Narvarte"},"281":{"Total_Rides":116,"Start_Station":29,"End_Station":19,"Start_Station_Name":"29 REFORMA-BUCARELI","Start_Station_Lat":19.434913,"Start_Station_Lon":-99.149939,"Start_Colonia":"Centro","End_Station_Name":"19 REFORMA-RIO RHIN","End_Station_Lat":19.429241,"End_Station_Lon":-99.163377,"End_Colonia":"Cuauhtemoc"},"282":{"Total_Rides":116,"Start_Station":43,"End_Station":19,"Start_Station_Name":"43 JUAREZ-REVILLAGIGEDO","Start_Station_Lat":19.435228,"Start_Station_Lon":-99.146063,"Start_Colonia":"Centro","End_Station_Name":"19 REFORMA-RIO RHIN","End_Station_Lat":19.429241,"End_Station_Lon":-99.163377,"End_Colonia":"Cuauhtemoc"},"283":{"Total_Rides":116,"Start_Station":41,"End_Station":11,"Start_Station_Name":"41 REFORMA-AV. DE LA REPUBLICA","Start_Station_Lat":19.435637,"Start_Station_Lon":-99.150137,"Start_Colonia":"Tabacalera","End_Station_Name":"11 RIO AMAZONAS-RIO LERMA","End_Station_Lat":19.430992,"End_Station_Lon":-99.163593,"End_Colonia":"Cuauhtemoc"},"284":{"Total_Rides":116,"Start_Station":10,"End_Station":17,"Start_Station_Name":"10 REFORMA-RAMIREZ","Start_Station_Lat":19.433321,"Start_Station_Lon":-99.154752,"Start_Colonia":"Tabacalera","End_Station_Name":"17 REFORMA-RIO TIBER","End_Station_Lat":19.427501,"End_Station_Lon":-99.167125,"End_Colonia":"Cuauhtemoc"},"285":{"Total_Rides":116,"Start_Station":246,"End_Station":211,"Start_Station_Name":"246 LEIBNITZ-THIERS","Start_Station_Lat":19.434147,"Start_Station_Lon":-99.179835,"Start_Colonia":"Anzures","End_Station_Name":"211 NEWTON-HORACIO","End_Station_Lat":19.433607,"End_Station_Lon":-99.188528,"End_Colonia":"Polanco"},"286":{"Total_Rides":116,"Start_Station":204,"End_Station":242,"Start_Station_Name":"204 TEMISTOCLES-HOMERO","Start_Station_Lat":19.435882,"Start_Station_Lon":-99.19152,"Start_Colonia":"Polanco","End_Station_Name":"242 MIGUEL DE CERVANTES SAAVEDRA-PROL MOLIERE ","End_Station_Lat":19.440344,"End_Station_Lon":-99.20105,"End_Colonia":"Granada"},"287":{"Total_Rides":116,"Start_Station":136,"End_Station":137,"Start_Station_Name":"136 \u00c1LVARO OBREG\u00d3N-TONAL\u00c1","Start_Station_Lat":19.417715,"Start_Station_Lon":-99.162729,"Start_Colonia":"Roma Norte","End_Station_Name":"137 \u00c1LVARO OBREG\u00d3N-M\u00c9RIDA","End_Station_Lat":19.418774,"End_Station_Lon":-99.157081,"End_Colonia":"Roma Norte"},"288":{"Total_Rides":115,"Start_Station":64,"End_Station":58,"Start_Station_Name":"64 SONORA-AMSTERDAM","Start_Station_Lat":19.412877,"Start_Station_Lon":-99.166986,"Start_Colonia":"Hipodromo","End_Station_Name":"58 PARQUE ESPA\u00d1A-JUAN DE LA BARRERA","End_Station_Lat":19.41568,"End_Station_Lon":-99.171793,"End_Colonia":"Condesa"},"289":{"Total_Rides":115,"Start_Station":58,"End_Station":64,"Start_Station_Name":"58 PARQUE ESPA\u00d1A-JUAN DE LA BARRERA","Start_Station_Lat":19.41568,"Start_Station_Lon":-99.171793,"Start_Colonia":"Condesa","End_Station_Name":"64 SONORA-AMSTERDAM","End_Station_Lat":19.412877,"End_Station_Lon":-99.166986,"End_Colonia":"Hipodromo"},"290":{"Total_Rides":115,"Start_Station":25,"End_Station":25,"Start_Station_Name":"25 REFORMA-ESTOCOLMO","Start_Station_Lat":19.427317,"Start_Station_Lon":-99.166662,"Start_Colonia":"Juarez","End_Station_Name":"25 REFORMA-ESTOCOLMO","End_Station_Lat":19.427317,"End_Station_Lon":-99.166662,"End_Colonia":"Juarez"},"291":{"Total_Rides":115,"Start_Station":41,"End_Station":15,"Start_Station_Name":"41 REFORMA-AV. DE LA REPUBLICA","Start_Station_Lat":19.435637,"Start_Station_Lon":-99.150137,"Start_Colonia":"Tabacalera","End_Station_Name":"15 REFORMA-RIO MISSISSIPPI","End_Station_Lat":19.425477,"End_Station_Lon":-99.171567,"End_Colonia":"Cuauhtemoc"},"292":{"Total_Rides":115,"Start_Station":32,"End_Station":23,"Start_Station_Name":"32 LONDRES-SEVILLA","Start_Station_Lat":19.422705,"Start_Station_Lon":-99.169922,"Start_Colonia":"Juarez","End_Station_Name":"23 REFORMA-PRAGA","End_Station_Lat":19.42517,"End_Station_Lon":-99.17105,"End_Colonia":"Juarez"},"293":{"Total_Rides":115,"Start_Station":117,"End_Station":116,"Start_Station_Name":"117 LONDRES-NAPOLES ","Start_Station_Lat":19.427132,"Start_Station_Lon":-99.160369,"Start_Colonia":"Juarez","End_Station_Name":"116 LONDRES-ROMA","End_Station_Lat":19.428985,"End_Station_Lon":-99.15664,"End_Colonia":"Juarez"},"294":{"Total_Rides":115,"Start_Station":139,"End_Station":139,"Start_Station_Name":"E139 TONAL\u00c1-GUANJUATO","Start_Station_Lat":19.416128,"Start_Station_Lon":-99.162097,"Start_Colonia":"Roma Norte","End_Station_Name":"E139 TONAL\u00c1-GUANJUATO","End_Station_Lat":19.416128,"End_Station_Lon":-99.162097,"End_Colonia":"Roma Norte"},"295":{"Total_Rides":114,"Start_Station":56,"End_Station":56,"Start_Station_Name":"56 ALVARO OBREGON-MEDELLIN","Start_Station_Lat":19.416959,"Start_Station_Lon":-99.165702,"Start_Colonia":"Roma Norte","End_Station_Name":"56 ALVARO OBREGON-MEDELLIN","End_Station_Lat":19.416959,"End_Station_Lon":-99.165702,"End_Colonia":"Roma Norte"},"296":{"Total_Rides":114,"Start_Station":59,"End_Station":76,"Start_Station_Name":"59 POPOCATEPETL-AMSTERDAM","Start_Station_Lat":19.415121,"Start_Station_Lon":-99.166661,"Start_Colonia":"Hipodromo","End_Station_Name":"76 CHILPANCINGO-CAMPECHE","End_Station_Lat":19.408736,"End_Station_Lon":-99.169913,"End_Colonia":"Hipodromo"},"297":{"Total_Rides":114,"Start_Station":20,"End_Station":18,"Start_Station_Name":"20 REFORMA-RIO TAMESIS","Start_Station_Lat":19.430964,"Start_Station_Lon":-99.160206,"Start_Colonia":"Cuauhtemoc","End_Station_Name":"18 REFORMA-RIO RHIN","End_Station_Lat":19.42888,"End_Station_Lon":-99.164176,"End_Colonia":"Cuauhtemoc"},"298":{"Total_Rides":114,"Start_Station":34,"End_Station":6,"Start_Station_Name":"34 LIVERPOOL-GENOVA","Start_Station_Lat":19.424725,"Start_Station_Lon":-99.163331,"Start_Colonia":"Juarez","End_Station_Name":"6 RIO PANUCO-RIO SENA","End_Station_Lat":19.430922,"End_Station_Lon":-99.166959,"End_Colonia":"Cuauhtemoc"},"299":{"Total_Rides":114,"Start_Station":62,"End_Station":62,"Start_Station_Name":"62 FERNANDO MONTES DE OCA-AMATLAN","Start_Station_Lat":19.413322,"Start_Station_Lon":-99.175202,"Start_Colonia":"Condesa","End_Station_Name":"62 FERNANDO MONTES DE OCA-AMATLAN","End_Station_Lat":19.413322,"End_Station_Lon":-99.175202,"End_Colonia":"Condesa"},"300":{"Total_Rides":114,"Start_Station":35,"End_Station":5,"Start_Station_Name":"35 LIVERPOOL-GENOVA","Start_Station_Lat":19.424674,"Start_Station_Lon":-99.163292,"Start_Colonia":"Juarez","End_Station_Name":"5 RIO PANUCO-RIO TIBER","End_Station_Lat":19.42972,"End_Station_Lon":-99.169363,"End_Colonia":"Cuauhtemoc"},"301":{"Total_Rides":114,"Start_Station":87,"End_Station":87,"Start_Station_Name":"87 GANTE-VENUSTIANO CARRANZA","Start_Station_Lat":19.43182,"Start_Station_Lon":-99.13974,"Start_Colonia":"Centro","End_Station_Name":"87 GANTE-VENUSTIANO CARRANZA","End_Station_Lat":19.43182,"End_Station_Lon":-99.13974,"End_Colonia":"Centro"},"302":{"Total_Rides":114,"Start_Station":18,"End_Station":29,"Start_Station_Name":"18 REFORMA-RIO RHIN","Start_Station_Lat":19.42888,"Start_Station_Lon":-99.164176,"Start_Colonia":"Cuauhtemoc","End_Station_Name":"29 REFORMA-BUCARELI","End_Station_Lat":19.434913,"End_Station_Lon":-99.149939,"End_Colonia":"Centro"},"303":{"Total_Rides":114,"Start_Station":27,"End_Station":261,"Start_Station_Name":"27 REFORMA-HAVRE","Start_Station_Lat":19.429115,"Start_Station_Lon":-99.162614,"Start_Colonia":"Juarez","End_Station_Name":"261 PASEO DE LA REFORMA - R\u00cdO DE LA PLATA","End_Station_Lat":19.42495,"End_Station_Lon":-99.17246,"End_Colonia":"Juarez"},