data_2010 = [{"0":{"Total_Rides":25,"Start_Station":61,"End_Station":61,"Start_Station_Name":"61 AVENIDA MEXICO-SONORA","Start_Station_Lat":19.413742,"Start_Station_Lon":-99.169525,"Start_Colonia":"Hipodromo","End_Station_Name":"61 AVENIDA MEXICO-SONORA","End_Station_Lat":19.413742,"End_Station_Lon":-99.169525,"End_Colonia":"Hipodromo"},"1":{"Total_Rides":24,"Start_Station":85,"End_Station":85,"Start_Station_Name":"85 ROSAS MORENO-SULLIVAN","Start_Station_Lat":19.43425,"Start_Station_Lon":-99.162508,"Start_Colonia":"San Rafael","End_Station_Name":"85 ROSAS MORENO-SULLIVAN","End_Station_Lat":19.43425,"End_Station_Lon":-99.162508,"End_Colonia":"San Rafael"},"2":{"Total_Rides":22,"Start_Station":70,"End_Station":70,"Start_Station_Name":"70 PARQUE MEXICO-MICHOACAN","Start_Station_Lat":19.411272,"Start_Station_Lon":-99.169718,"Start_Colonia":"Hipodromo","End_Station_Name":"70 PARQUE MEXICO-MICHOACAN","End_Station_Lat":19.411272,"End_Station_Lon":-99.169718,"End_Colonia":"Hipodromo"},"3":{"Total_Rides":18,"Start_Station":13,"End_Station":20,"Start_Station_Name":"13 REFORMA-RIO MISSISSIPPI","Start_Station_Lat":19.42502,"Start_Station_Lon":-99.17231,"Start_Colonia":"Cuauhtemoc","End_Station_Name":"20 REFORMA-RIO TAMESIS","End_Station_Lat":19.430964,"End_Station_Lon":-99.160206,"End_Colonia":"Cuauhtemoc"},"4":{"Total_Rides":17,"Start_Station":20,"End_Station":17,"Start_Station_Name":"20 REFORMA-RIO TAMESIS","Start_Station_Lat":19.430964,"Start_Station_Lon":-99.160206,"Start_Colonia":"Cuauhtemoc","End_Station_Name":"17 REFORMA-RIO TIBER","End_Station_Lat":19.427501,"End_Station_Lon":-99.167125,"End_Colonia":"Cuauhtemoc"},"5":{"Total_Rides":17,"Start_Station":20,"End_Station":13,"Start_Station_Name":"20 REFORMA-RIO TAMESIS","Start_Station_Lat":19.430964,"Start_Station_Lon":-99.160206,"Start_Colonia":"Cuauhtemoc","End_Station_Name":"13 REFORMA-RIO MISSISSIPPI","End_Station_Lat":19.42502,"End_Station_Lon":-99.17231,"End_Colonia":"Cuauhtemoc"},"6":{"Total_Rides":16,"Start_Station":19,"End_Station":85,"Start_Station_Name":"19 REFORMA-RIO RHIN","Start_Station_Lat":19.429241,"Start_Station_Lon":-99.163377,"Start_Colonia":"Cuauhtemoc","End_Station_Name":"85 ROSAS MORENO-SULLIVAN","End_Station_Lat":19.43425,"End_Station_Lon":-99.162508,"End_Colonia":"San Rafael"},"7":{"Total_Rides":15,"Start_Station":18,"End_Station":1,"Start_Station_Name":"18 REFORMA-RIO RHIN","Start_Station_Lat":19.42888,"Start_Station_Lon":-99.164176,"Start_Colonia":"Cuauhtemoc","End_Station_Name":"1 RIO SENA-RIO BALSAS","End_Station_Lat":19.4335714,"End_Station_Lon":-99.1678091,"End_Colonia":"Cuauhtemoc"},"8":{"Total_Rides":14,"Start_Station":74,"End_Station":74,"Start_Station_Name":"74 NUEVO LEON-OZULAMA","Start_Station_Lat":19.410343,"Start_Station_Lon":-99.172831,"Start_Colonia":"Hipodromo","End_Station_Name":"74 NUEVO LEON-OZULAMA","End_Station_Lat":19.410343,"End_Station_Lon":-99.172831,"End_Colonia":"Hipodromo"},"9":{"Total_Rides":14,"Start_Station":17,"End_Station":20,"Start_Station_Name":"17 REFORMA-RIO TIBER","Start_Station_Lat":19.427501,"Start_Station_Lon":-99.167125,"Start_Colonia":"Cuauhtemoc","End_Station_Name":"20 REFORMA-RIO TAMESIS","End_Station_Lat":19.430964,"End_Station_Lon":-99.160206,"End_Colonia":"Cuauhtemoc"},"10":{"Total_Rides":14,"Start_Station":67,"End_Station":67,"Start_Station_Name":"67 VICENTE SUAREZ-MICHOACAN","Start_Station_Lat":19.411797,"Start_Station_Lon":-99.17588,"Start_Colonia":"Condesa","End_Station_Name":"67 VICENTE SUAREZ-MICHOACAN","End_Station_Lat":19.411797,"End_Station_Lon":-99.17588,"End_Colonia":"Condesa"},"11":{"Total_Rides":14,"Start_Station":36,"End_Station":53,"Start_Station_Name":"36 PUEBLA-VERACRUZ","Start_Station_Lat":19.419725,"Start_Station_Lon":-99.175778,"Start_Colonia":"Piedad Narvarte","End_Station_Name":"53 FERNANDO MONTES DE OCA-TULA","End_Station_Lat":19.414773,"End_Station_Lon":-99.178433,"End_Colonia":"Condesa"},"12":{"Total_Rides":13,"Start_Station":25,"End_Station":27,"Start_Station_Name":"25 REFORMA-ESTOCOLMO","Start_Station_Lat":19.427317,"Start_Station_Lon":-99.166662,"Start_Colonia":"Juarez","End_Station_Name":"27 REFORMA-HAVRE","End_Station_Lat":19.429115,"End_Station_Lon":-99.162614,"End_Colonia":"Juarez"},"13":{"Total_Rides":13,"Start_Station":1,"End_Station":27,"Start_Station_Name":"1 RIO SENA-RIO BALSAS","Start_Station_Lat":19.4335714,"Start_Station_Lon":-99.1678091,"Start_Colonia":"Cuauhtemoc","End_Station_Name":"27 REFORMA-HAVRE","End_Station_Lat":19.429115,"End_Station_Lon":-99.162614,"End_Colonia":"Juarez"},"14":{"Total_Rides":13,"Start_Station":31,"End_Station":28,"Start_Station_Name":"31 HAMBURGO-INSURGENTES","Start_Station_Lat":19.427838,"Start_Station_Lon":-99.161193,"Start_Colonia":"Juarez","End_Station_Name":"28 TOLEDO-TOKIO","End_Station_Lat":19.423542,"End_Station_Lon":-99.172494,"End_Colonia":"Juarez"},"15":{"Total_Rides":13,"Start_Station":58,"End_Station":58,"Start_Station_Name":"58 PARQUE ESPA\u00d1A-JUAN DE LA BARRERA","Start_Station_Lat":19.41568,"Start_Station_Lon":-99.171793,"Start_Colonia":"Condesa","End_Station_Name":"58 PARQUE ESPA\u00d1A-JUAN DE LA BARRERA","End_Station_Lat":19.41568,"End_Station_Lon":-99.171793,"End_Colonia":"Condesa"},"16":{"Total_Rides":13,"Start_Station":27,"End_Station":27,"Start_Station_Name":"27 REFORMA-HAVRE","Start_Station_Lat":19.429115,"Start_Station_Lon":-99.162614,"Start_Colonia":"Juarez","End_Station_Name":"27 REFORMA-HAVRE","End_Station_Lat":19.429115,"End_Station_Lon":-99.162614,"End_Colonia":"Juarez"},"17":{"Total_Rides":13,"Start_Station":63,"End_Station":63,"Start_Station_Name":"63 NUEVO LEON- LAREDO","Start_Station_Lat":19.413681,"Start_Station_Lon":-99.171531,"Start_Colonia":"Condesa","End_Station_Name":"63 NUEVO LEON- LAREDO","End_Station_Lat":19.413681,"End_Station_Lon":-99.171531,"End_Colonia":"Condesa"},"18":{"Total_Rides":12,"Start_Station":23,"End_Station":27,"Start_Station_Name":"23 REFORMA-PRAGA","Start_Station_Lat":19.42517,"Start_Station_Lon":-99.17105,"Start_Colonia":"Juarez","End_Station_Name":"27 REFORMA-HAVRE","End_Station_Lat":19.429115,"End_Station_Lon":-99.162614,"End_Colonia":"Juarez"},"19":{"Total_Rides":12,"Start_Station":63,"End_Station":64,"Start_Station_Name":"63 NUEVO LEON- LAREDO","Start_Station_Lat":19.413681,"Start_Station_Lon":-99.171531,"Start_Colonia":"Condesa","End_Station_Name":"64 SONORA-AMSTERDAM","End_Station_Lat":19.412877,"End_Station_Lon":-99.166986,"End_Colonia":"Hipodromo"},"20":{"Total_Rides":12,"Start_Station":18,"End_Station":15,"Start_Station_Name":"18 REFORMA-RIO RHIN","Start_Station_Lat":19.42888,"Start_Station_Lon":-99.164176,"Start_Colonia":"Cuauhtemoc","End_Station_Name":"15 REFORMA-RIO MISSISSIPPI","End_Station_Lat":19.425477,"End_Station_Lon":-99.171567,"End_Colonia":"Cuauhtemoc"},"21":{"Total_Rides":12,"Start_Station":84,"End_Station":76,"Start_Station_Name":"84 CHILPANCINGO-TLAXCALA","Start_Station_Lat":19.40702,"Start_Station_Lon":-99.169587,"Start_Colonia":"Hipodromo","End_Station_Name":"76 CHILPANCINGO-CAMPECHE","End_Station_Lat":19.408736,"End_Station_Lon":-99.169913,"End_Colonia":"Hipodromo"},"22":{"Total_Rides":12,"Start_Station":63,"End_Station":84,"Start_Station_Name":"63 NUEVO LEON- LAREDO","Start_Station_Lat":19.413681,"Start_Station_Lon":-99.171531,"Start_Colonia":"Condesa","End_Station_Name":"84 CHILPANCINGO-TLAXCALA","End_Station_Lat":19.40702,"End_Station_Lon":-99.169587,"End_Colonia":"Hipodromo"},"23":{"Total_Rides":12,"Start_Station":64,"End_Station":36,"Start_Station_Name":"64 SONORA-AMSTERDAM","Start_Station_Lat":19.412877,"Start_Station_Lon":-99.166986,"Start_Colonia":"Hipodromo","End_Station_Name":"36 PUEBLA-VERACRUZ","End_Station_Lat":19.419725,"End_Station_Lon":-99.175778,"End_Colonia":"Piedad Narvarte"},"24":{"Total_Rides":12,"Start_Station":16,"End_Station":13,"Start_Station_Name":"16 REFORMA-R\u00cdO TIBER","Start_Station_Lat":19.427226,"Start_Station_Lon":-99.168242,"Start_Colonia":"Cuauhtemoc","End_Station_Name":"13 REFORMA-RIO MISSISSIPPI","End_Station_Lat":19.42502,"End_Station_Lon":-99.17231,"End_Colonia":"Cuauhtemoc"},"25":{"Total_Rides":12,"Start_Station":67,"End_Station":77,"Start_Station_Name":"67 VICENTE SUAREZ-MICHOACAN","Start_Station_Lat":19.411797,"Start_Station_Lon":-99.17588,"Start_Colonia":"Condesa","End_Station_Name":"77 CHOAPAN-TAMAULIPAS","End_Station_Lat":19.406765,"End_Station_Lon":-99.178321,"End_Colonia":"Hipodromo"},"26":{"Total_Rides":11,"Start_Station":49,"End_Station":49,"Start_Station_Name":"49 MAZATLAN-JUAN DE LA BARRERA","Start_Station_Lat":19.416712,"Start_Station_Lon":-99.175704,"Start_Colonia":"Condesa","End_Station_Name":"49 MAZATLAN-JUAN DE LA BARRERA","End_Station_Lat":19.416712,"End_Station_Lon":-99.175704,"End_Colonia":"Condesa"},"27":{"Total_Rides":11,"Start_Station":76,"End_Station":64,"Start_Station_Name":"76 CHILPANCINGO-CAMPECHE","Start_Station_Lat":19.408736,"Start_Station_Lon":-99.169913,"Start_Colonia":"Hipodromo","End_Station_Name":"64 SONORA-AMSTERDAM","End_Station_Lat":19.412877,"End_Station_Lon":-99.166986,"End_Colonia":"Hipodromo"},"28":{"Total_Rides":11,"Start_Station":2,"End_Station":9,"Start_Station_Name":"2 RIO GUADALQUIVIR-RIO BALSAS","Start_Station_Lat":19.431386,"Start_Station_Lon":-99.171695,"Start_Colonia":"Cuauhtemoc","End_Station_Name":"9 RIO GUADALQUIVIR-RIO LERMA","End_Station_Lat":19.428009,"End_Station_Lon":-99.169918,"End_Colonia":"Cuauhtemoc"},"29":{"Total_Rides":11,"Start_Station":32,"End_Station":24,"Start_Station_Name":"32 LONDRES-SEVILLA","Start_Station_Lat":19.422705,"Start_Station_Lon":-99.169922,"Start_Colonia":"Juarez","End_Station_Name":"24 REFORMA-VARSOVIA","End_Station_Lat":19.42647,"End_Station_Lon":-99.16822,"End_Colonia":"Juarez"},"30":{"Total_Rides":11,"Start_Station":72,"End_Station":72,"Start_Station_Name":"72 MAZATLAN-ALFONSO REYES","Start_Station_Lat":19.409893,"Start_Station_Lon":-99.179544,"Start_Colonia":"Hipodromo Condesa","End_Station_Name":"72 MAZATLAN-ALFONSO REYES","End_Station_Lat":19.409893,"End_Station_Lon":-99.179544,"End_Colonia":"Hipodromo Condesa"},"31":{"Total_Rides":11,"Start_Station":13,"End_Station":13,"Start_Station_Name":"13 REFORMA-RIO MISSISSIPPI","Start_Station_Lat":19.42502,"Start_Station_Lon":-99.17231,"Start_Colonia":"Cuauhtemoc","End_Station_Name":"13 REFORMA-RIO MISSISSIPPI","End_Station_Lat":19.42502,"End_Station_Lon":-99.17231,"End_Colonia":"Cuauhtemoc"},"32":{"Total_Rides":11,"Start_Station":84,"End_Station":58,"Start_Station_Name":"84 CHILPANCINGO-TLAXCALA","Start_Station_Lat":19.40702,"Start_Station_Lon":-99.169587,"Start_Colonia":"Hipodromo","End_Station_Name":"58 PARQUE ESPA\u00d1A-JUAN DE LA BARRERA","End_Station_Lat":19.41568,"End_Station_Lon":-99.171793,"End_Colonia":"Condesa"},"33":{"Total_Rides":10,"Start_Station":64,"End_Station":58,"Start_Station_Name":"64 SONORA-AMSTERDAM","Start_Station_Lat":19.412877,"Start_Station_Lon":-99.166986,"Start_Colonia":"Hipodromo","End_Station_Name":"58 PARQUE ESPA\u00d1A-JUAN DE LA BARRERA","End_Station_Lat":19.41568,"End_Station_Lon":-99.171793,"End_Colonia":"Condesa"},"34":{"Total_Rides":10,"Start_Station":61,"End_Station":64,"Start_Station_Name":"61 AVENIDA MEXICO-SONORA","Start_Station_Lat":19.413742,"Start_Station_Lon":-99.169525,"Start_Colonia":"Hipodromo","End_Station_Name":"64 SONORA-AMSTERDAM","End_Station_Lat":19.412877,"End_Station_Lon":-99.166986,"End_Colonia":"Hipodromo"},"35":{"Total_Rides":10,"Start_Station":70,"End_Station":61,"Start_Station_Name":"70 PARQUE MEXICO-MICHOACAN","Start_Station_Lat":19.411272,"Start_Station_Lon":-99.169718,"Start_Colonia":"Hipodromo","End_Station_Name":"61 AVENIDA MEXICO-SONORA","End_Station_Lat":19.413742,"End_Station_Lon":-99.169525,"End_Colonia":"Hipodromo"},"36":{"Total_Rides":10,"Start_Station":84,"End_Station":63,"Start_Station_Name":"84 CHILPANCINGO-TLAXCALA","Start_Station_Lat":19.40702,"Start_Station_Lon":-99.169587,"Start_Colonia":"Hipodromo","End_Station_Name":"63 NUEVO LEON- LAREDO","End_Station_Lat":19.413681,"End_Station_Lon":-99.171531,"End_Colonia":"Condesa"},"37":{"Total_Rides":10,"Start_Station":53,"End_Station":36,"Start_Station_Name":"53 FERNANDO MONTES DE OCA-TULA","Start_Station_Lat":19.414773,"Start_Station_Lon":-99.178433,"Start_Colonia":"Condesa","End_Station_Name":"36 PUEBLA-VERACRUZ","End_Station_Lat":19.419725,"End_Station_Lon":-99.175778,"End_Colonia":"Piedad Narvarte"},"38":{"Total_Rides":10,"Start_Station":73,"End_Station":73,"Start_Station_Name":"73 CAMPECHE-TAMAULIPAS","Start_Station_Lat":19.410245,"Start_Station_Lon":-99.175612,"Start_Colonia":"Hipodromo Condesa","End_Station_Name":"73 CAMPECHE-TAMAULIPAS","End_Station_Lat":19.410245,"End_Station_Lon":-99.175612,"End_Colonia":"Hipodromo Condesa"},"39":{"Total_Rides":10,"Start_Station":18,"End_Station":18,"Start_Station_Name":"18 REFORMA-RIO RHIN","Start_Station_Lat":19.42888,"Start_Station_Lon":-99.164176,"Start_Colonia":"Cuauhtemoc","End_Station_Name":"18 REFORMA-RIO RHIN","End_Station_Lat":19.42888,"End_Station_Lon":-99.164176,"End_Colonia":"Cuauhtemoc"},"40":{"Total_Rides":10,"Start_Station":54,"End_Station":54,"Start_Station_Name":"54 PARQUE ESPA\u00d1A-SONORA","Start_Station_Lat":19.416215,"Start_Station_Lon":-99.170825,"Start_Colonia":"Condesa","End_Station_Name":"54 PARQUE ESPA\u00d1A-SONORA","End_Station_Lat":19.416215,"End_Station_Lon":-99.170825,"End_Colonia":"Condesa"},"41":{"Total_Rides":10,"Start_Station":1,"End_Station":6,"Start_Station_Name":"1 RIO SENA-RIO BALSAS","Start_Station_Lat":19.4335714,"Start_Station_Lon":-99.1678091,"Start_Colonia":"Cuauhtemoc","End_Station_Name":"6 RIO PANUCO-RIO SENA","End_Station_Lat":19.430922,"End_Station_Lon":-99.166959,"End_Colonia":"Cuauhtemoc"},"42":{"Total_Rides":10,"Start_Station":37,"End_Station":64,"Start_Station_Name":"37 GUADALAJARA-PUEBLA","Start_Station_Lat":19.420419,"Start_Station_Lon":-99.172676,"Start_Colonia":"Roma Norte","End_Station_Name":"64 SONORA-AMSTERDAM","End_Station_Lat":19.412877,"End_Station_Lon":-99.166986,"End_Colonia":"Hipodromo"},"43":{"Total_Rides":9,"Start_Station":4,"End_Station":4,"Start_Station_Name":"4 RIO NILO-RIO PANUCO","Start_Station_Lat":19.428309,"Start_Station_Lon":-99.171713,"Start_Colonia":"Cuauhtemoc","End_Station_Name":"4 RIO NILO-RIO PANUCO","End_Station_Lat":19.428309,"End_Station_Lon":-99.171713,"End_Colonia":"Cuauhtemoc"},"44":{"Total_Rides":9,"Start_Station":80,"End_Station":80,"Start_Station_Name":"80 NUEVO LEON-AGUASCALIENTES","Start_Station_Lat":19.407307,"Start_Station_Lon":-99.172118,"Start_Colonia":"Hipodromo","End_Station_Name":"80 NUEVO LEON-AGUASCALIENTES","End_Station_Lat":19.407307,"End_Station_Lon":-99.172118,"End_Colonia":"Hipodromo"},"45":{"Total_Rides":9,"Start_Station":61,"End_Station":84,"Start_Station_Name":"61 AVENIDA MEXICO-SONORA","Start_Station_Lat":19.413742,"Start_Station_Lon":-99.169525,"Start_Colonia":"Hipodromo","End_Station_Name":"84 CHILPANCINGO-TLAXCALA","End_Station_Lat":19.40702,"End_Station_Lon":-99.169587,"End_Colonia":"Hipodromo"},"46":{"Total_Rides":9,"Start_Station":19,"End_Station":19,"Start_Station_Name":"19 REFORMA-RIO RHIN","Start_Station_Lat":19.429241,"Start_Station_Lon":-99.163377,"Start_Colonia":"Cuauhtemoc","End_Station_Name":"19 REFORMA-RIO RHIN","End_Station_Lat":19.429241,"End_Station_Lon":-99.163377,"End_Colonia":"Cuauhtemoc"},"47":{"Total_Rides":9,"Start_Station":9,"End_Station":1,"Start_Station_Name":"9 RIO GUADALQUIVIR-RIO LERMA","Start_Station_Lat":19.428009,"Start_Station_Lon":-99.169918,"Start_Colonia":"Cuauhtemoc","End_Station_Name":"1 RIO SENA-RIO BALSAS","End_Station_Lat":19.4335714,"End_Station_Lon":-99.1678091,"End_Colonia":"Cuauhtemoc"},"48":{"Total_Rides":9,"Start_Station":60,"End_Station":72,"Start_Station_Name":"60 MAZATLAN-FERNANDO MONTES DE OCA","Start_Station_Lat":19.414191,"Start_Station_Lon":-99.177123,"Start_Colonia":"Condesa","End_Station_Name":"72 MAZATLAN-ALFONSO REYES","End_Station_Lat":19.409893,"End_Station_Lon":-99.179544,"End_Colonia":"Hipodromo Condesa"},"49":{"Total_Rides":9,"Start_Station":19,"End_Station":17,"Start_Station_Name":"19 REFORMA-RIO RHIN","Start_Station_Lat":19.429241,"Start_Station_Lon":-99.163377,"Start_Colonia":"Cuauhtemoc","End_Station_Name":"17 REFORMA-RIO TIBER","End_Station_Lat":19.427501,"End_Station_Lon":-99.167125,"End_Colonia":"Cuauhtemoc"},"50":{"Total_Rides":9,"Start_Station":20,"End_Station":20,"Start_Station_Name":"20 REFORMA-RIO TAMESIS","Start_Station_Lat":19.430964,"Start_Station_Lon":-99.160206,"Start_Colonia":"Cuauhtemoc","End_Station_Name":"20 REFORMA-RIO TAMESIS","End_Station_Lat":19.430964,"End_Station_Lon":-99.160206,"End_Colonia":"Cuauhtemoc"},"51":{"Total_Rides":9,"Start_Station":36,"End_Station":57,"Start_Station_Name":"36 PUEBLA-VERACRUZ","Start_Station_Lat":19.419725,"Start_Station_Lon":-99.175778,"Start_Colonia":"Piedad Narvarte","End_Station_Name":"57 CUERNAVACA-JUAN ESCUTIA","End_Station_Lat":19.414903,"End_Station_Lon":-99.17495,"End_Colonia":"Condesa"},"52":{"Total_Rides":9,"Start_Station":17,"End_Station":27,"Start_Station_Name":"17 REFORMA-RIO TIBER","Start_Station_Lat":19.427501,"Start_Station_Lon":-99.167125,"Start_Colonia":"Cuauhtemoc","End_Station_Name":"27 REFORMA-HAVRE","End_Station_Lat":19.429115,"End_Station_Lon":-99.162614,"End_Colonia":"Juarez"},"53":{"Total_Rides":9,"Start_Station":35,"End_Station":17,"Start_Station_Name":"35 LIVERPOOL-GENOVA","Start_Station_Lat":19.424674,"Start_Station_Lon":-99.163292,"Start_Colonia":"Juarez","End_Station_Name":"17 REFORMA-RIO TIBER","End_Station_Lat":19.427501,"End_Station_Lon":-99.167125,"End_Colonia":"Cuauhtemoc"},"54":{"Total_Rides":9,"Start_Station":79,"End_Station":79,"Start_Station_Name":"79 SALTILLO-ALFONSO REYES","Start_Station_Lat":19.407534,"Start_Station_Lon":-99.174427,"Start_Colonia":"Hipodromo","End_Station_Name":"79 SALTILLO-ALFONSO REYES","End_Station_Lat":19.407534,"End_Station_Lon":-99.174427,"End_Colonia":"Hipodromo"},"55":{"Total_Rides":9,"Start_Station":1,"End_Station":34,"Start_Station_Name":"1 RIO SENA-RIO BALSAS","Start_Station_Lat":19.4335714,"Start_Station_Lon":-99.1678091,"Start_Colonia":"Cuauhtemoc","End_Station_Name":"34 LIVERPOOL-GENOVA","End_Station_Lat":19.424725,"End_Station_Lon":-99.163331,"End_Colonia":"Juarez"},"56":{"Total_Rides":9,"Start_Station":1,"End_Station":9,"Start_Station_Name":"1 RIO SENA-RIO BALSAS","Start_Station_Lat":19.4335714,"Start_Station_Lon":-99.1678091,"Start_Colonia":"Cuauhtemoc","End_Station_Name":"9 RIO GUADALQUIVIR-RIO LERMA","End_Station_Lat":19.428009,"End_Station_Lon":-99.169918,"End_Colonia":"Cuauhtemoc"},"57":{"Total_Rides":9,"Start_Station":71,"End_Station":76,"Start_Station_Name":"71 AMSTERDAM-MICHOACAN","Start_Station_Lat":19.411423,"Start_Station_Lon":-99.171351,"Start_Colonia":"Hipodromo","End_Station_Name":"76 CHILPANCINGO-CAMPECHE","End_Station_Lat":19.408736,"End_Station_Lon":-99.169913,"End_Colonia":"Hipodromo"},"58":{"Total_Rides":9,"Start_Station":53,"End_Station":62,"Start_Station_Name":"53 FERNANDO MONTES DE OCA-TULA","Start_Station_Lat":19.414773,"Start_Station_Lon":-99.178433,"Start_Colonia":"Condesa","End_Station_Name":"62 FERNANDO MONTES DE OCA-AMATLAN","End_Station_Lat":19.413322,"End_Station_Lon":-99.175202,"End_Colonia":"Condesa"},"59":{"Total_Rides":9,"Start_Station":27,"End_Station":23,"Start_Station_Name":"27 REFORMA-HAVRE","Start_Station_Lat":19.429115,"Start_Station_Lon":-99.162614,"Start_Colonia":"Juarez","End_Station_Name":"23 REFORMA-PRAGA","End_Station_Lat":19.42517,"End_Station_Lon":-99.17105,"End_Colonia":"Juarez"},"60":{"Total_Rides":9,"Start_Station":34,"End_Station":1,"Start_Station_Name":"34 LIVERPOOL-GENOVA","Start_Station_Lat":19.424725,"Start_Station_Lon":-99.163331,"Start_Colonia":"Juarez","End_Station_Name":"1 RIO SENA-RIO BALSAS","End_Station_Lat":19.4335714,"End_Station_Lon":-99.1678091,"End_Colonia":"Cuauhtemoc"},"61":{"Total_Rides":9,"Start_Station":18,"End_Station":13,"Start_Station_Name":"18 REFORMA-RIO RHIN","Start_Station_Lat":19.42888,"Start_Station_Lon":-99.164176,"Start_Colonia":"Cuauhtemoc","End_Station_Name":"13 REFORMA-RIO MISSISSIPPI","End_Station_Lat":19.42502,"End_Station_Lon":-99.17231,"End_Colonia":"Cuauhtemoc"},"62":{"Total_Rides":9,"Start_Station":58,"End_Station":84,"Start_Station_Name":"58 PARQUE ESPA\u00d1A-JUAN DE LA BARRERA","Start_Station_Lat":19.41568,"Start_Station_Lon":-99.171793,"Start_Colonia":"Condesa","End_Station_Name":"84 CHILPANCINGO-TLAXCALA","End_Station_Lat":19.40702,"End_Station_Lon":-99.169587,"End_Colonia":"Hipodromo"},"63":{"Total_Rides":9,"Start_Station":1,"End_Station":4,"Start_Station_Name":"1 RIO SENA-RIO BALSAS","Start_Station_Lat":19.4335714,"Start_Station_Lon":-99.1678091,"Start_Colonia":"Cuauhtemoc","End_Station_Name":"4 RIO NILO-RIO PANUCO","End_Station_Lat":19.428309,"End_Station_Lon":-99.171713,"End_Colonia":"Cuauhtemoc"},"64":{"Total_Rides":9,"Start_Station":84,"End_Station":61,"Start_Station_Name":"84 CHILPANCINGO-TLAXCALA","Start_Station_Lat":19.40702,"Start_Station_Lon":-99.169587,"Start_Colonia":"Hipodromo","End_Station_Name":"61 AVENIDA MEXICO-SONORA","End_Station_Lat":19.413742,"End_Station_Lon":-99.169525,"End_Colonia":"Hipodromo"},"65":{"Total_Rides":9,"Start_Station":76,"End_Station":76,"Start_Station_Name":"76 CHILPANCINGO-CAMPECHE","Start_Station_Lat":19.408736,"Start_Station_Lon":-99.169913,"Start_Colonia":"Hipodromo","End_Station_Name":"76 CHILPANCINGO-CAMPECHE","End_Station_Lat":19.408736,"End_Station_Lon":-99.169913,"End_Colonia":"Hipodromo"},"66":{"Total_Rides":9,"Start_Station":49,"End_Station":46,"Start_Station_Name":"49 MAZATLAN-JUAN DE LA BARRERA","Start_Station_Lat":19.416712,"Start_Station_Lon":-99.175704,"Start_Colonia":"Condesa","End_Station_Name":"46 DURANGO-SALAMANCA","End_Station_Lat":19.419214,"End_Station_Lon":-99.169732,"End_Colonia":"Roma Norte"},"67":{"Total_Rides":8,"Start_Station":53,"End_Station":66,"Start_Station_Name":"53 FERNANDO MONTES DE OCA-TULA","Start_Station_Lat":19.414773,"Start_Station_Lon":-99.178433,"Start_Colonia":"Condesa","End_Station_Name":"66 MAZATLAN-FRANCISCO MARQUEZ","End_Station_Lat":19.411402,"End_Station_Lon":-99.178666,"End_Colonia":"Hipodromo Condesa"},"68":{"Total_Rides":8,"Start_Station":24,"End_Station":27,"Start_Station_Name":"24 REFORMA-VARSOVIA","Start_Station_Lat":19.42647,"Start_Station_Lon":-99.16822,"Start_Colonia":"Juarez","End_Station_Name":"27 REFORMA-HAVRE","End_Station_Lat":19.429115,"End_Station_Lon":-99.162614,"End_Colonia":"Juarez"},"69":{"Total_Rides":8,"Start_Station":36,"End_Station":66,"Start_Station_Name":"36 PUEBLA-VERACRUZ","Start_Station_Lat":19.419725,"Start_Station_Lon":-99.175778,"Start_Colonia":"Piedad Narvarte","End_Station_Name":"66 MAZATLAN-FRANCISCO MARQUEZ","End_Station_Lat":19.411402,"End_Station_Lon":-99.178666,"End_Colonia":"Hipodromo Condesa"},"70":{"Total_Rides":8,"Start_Station":59,"End_Station":71,"Start_Station_Name":"59 POPOCATEPETL-AMSTERDAM","Start_Station_Lat":19.415121,"Start_Station_Lon":-99.166661,"Start_Colonia":"Hipodromo","End_Station_Name":"71 AMSTERDAM-MICHOACAN","End_Station_Lat":19.411423,"End_Station_Lon":-99.171351,"End_Colonia":"Hipodromo"},"71":{"Total_Rides":8,"Start_Station":21,"End_Station":24,"Start_Station_Name":"21 REFORMA-DUBLIN","Start_Station_Lat":19.42472,"Start_Station_Lon":-99.17206,"Start_Colonia":"Juarez","End_Station_Name":"24 REFORMA-VARSOVIA","End_Station_Lat":19.42647,"End_Station_Lon":-99.16822,"End_Colonia":"Juarez"},"72":{"Total_Rides":8,"Start_Station":56,"End_Station":56,"Start_Station_Name":"56 ALVARO OBREGON-MEDELLIN","Start_Station_Lat":19.416959,"Start_Station_Lon":-99.165702,"Start_Colonia":"Roma Norte","End_Station_Name":"56 ALVARO OBREGON-MEDELLIN","End_Station_Lat":19.416959,"End_Station_Lon":-99.165702,"End_Colonia":"Roma Norte"},"73":{"Total_Rides":8,"Start_Station":64,"End_Station":68,"Start_Station_Name":"64 SONORA-AMSTERDAM","Start_Station_Lat":19.412877,"Start_Station_Lon":-99.166986,"Start_Colonia":"Hipodromo","End_Station_Name":"68 TAMAULIPAS-MICHOACAN","End_Station_Lat":19.411556,"End_Station_Lon":-99.17406,"End_Colonia":"Condesa"},"74":{"Total_Rides":8,"Start_Station":83,"End_Station":70,"Start_Station_Name":"83 NUEVO LEON-ALFONSO REYES","Start_Station_Lat":19.406296,"Start_Station_Lon":-99.172117,"Start_Colonia":"Hipodromo","End_Station_Name":"70 PARQUE MEXICO-MICHOACAN","End_Station_Lat":19.411272,"End_Station_Lon":-99.169718,"End_Colonia":"Hipodromo"},"75":{"Total_Rides":8,"Start_Station":16,"End_Station":16,"Start_Station_Name":"16 REFORMA-R\u00cdO TIBER","Start_Station_Lat":19.427226,"Start_Station_Lon":-99.168242,"Start_Colonia":"Cuauhtemoc","End_Station_Name":"16 REFORMA-R\u00cdO TIBER","End_Station_Lat":19.427226,"End_Station_Lon":-99.168242,"End_Colonia":"Cuauhtemoc"},"76":{"Total_Rides":8,"Start_Station":84,"End_Station":84,"Start_Station_Name":"84 CHILPANCINGO-TLAXCALA","Start_Station_Lat":19.40702,"Start_Station_Lon":-99.169587,"Start_Colonia":"Hipodromo","End_Station_Name":"84 CHILPANCINGO-TLAXCALA","End_Station_Lat":19.40702,"End_Station_Lon":-99.169587,"End_Colonia":"Hipodromo"},"77":{"Total_Rides":8,"Start_Station":69,"End_Station":69,"Start_Station_Name":"69 MICHOACAN-AMSTERDAM","Start_Station_Lat":19.410733,"Start_Station_Lon":-99.168111,"Start_Colonia":"Hipodromo","End_Station_Name":"69 MICHOACAN-AMSTERDAM","End_Station_Lat":19.410733,"End_Station_Lon":-99.168111,"End_Colonia":"Hipodromo"},"78":{"Total_Rides":8,"Start_Station":37,"End_Station":37,"Start_Station_Name":"37 GUADALAJARA-PUEBLA","Start_Station_Lat":19.420419,"Start_Station_Lon":-99.172676,"Start_Colonia":"Roma Norte","End_Station_Name":"37 GUADALAJARA-PUEBLA","End_Station_Lat":19.420419,"End_Station_Lon":-99.172676,"End_Colonia":"Roma Norte"},"79":{"Total_Rides":8,"Start_Station":2,"End_Station":2,"Start_Station_Name":"2 RIO GUADALQUIVIR-RIO BALSAS","Start_Station_Lat":19.431386,"Start_Station_Lon":-99.171695,"Start_Colonia":"Cuauhtemoc","End_Station_Name":"2 RIO GUADALQUIVIR-RIO BALSAS","End_Station_Lat":19.431386,"End_Station_Lon":-99.171695,"End_Colonia":"Cuauhtemoc"},"80":{"Total_Rides":8,"Start_Station":79,"End_Station":72,"Start_Station_Name":"79 SALTILLO-ALFONSO REYES","Start_Station_Lat":19.407534,"Start_Station_Lon":-99.174427,"Start_Colonia":"Hipodromo","End_Station_Name":"72 MAZATLAN-ALFONSO REYES","End_Station_Lat":19.409893,"End_Station_Lon":-99.179544,"End_Colonia":"Hipodromo Condesa"},"81":{"Total_Rides":8,"Start_Station":10,"End_Station":10,"Start_Station_Name":"10 REFORMA-RAMIREZ","Start_Station_Lat":19.433321,"Start_Station_Lon":-99.154752,"Start_Colonia":"Tabacalera","End_Station_Name":"10 REFORMA-RAMIREZ","End_Station_Lat":19.433321,"End_Station_Lon":-99.154752,"End_Colonia":"Tabacalera"},"82":{"Total_Rides":8,"Start_Station":1,"End_Station":18,"Start_Station_Name":"1 RIO SENA-RIO BALSAS","Start_Station_Lat":19.4335714,"Start_Station_Lon":-99.1678091,"Start_Colonia":"Cuauhtemoc","End_Station_Name":"18 REFORMA-RIO RHIN","End_Station_Lat":19.42888,"End_Station_Lon":-99.164176,"End_Colonia":"Cuauhtemoc"},"83":{"Total_Rides":8,"Start_Station":15,"End_Station":85,"Start_Station_Name":"15 REFORMA-RIO MISSISSIPPI","Start_Station_Lat":19.425477,"Start_Station_Lon":-99.171567,"Start_Colonia":"Cuauhtemoc","End_Station_Name":"85 ROSAS MORENO-SULLIVAN","End_Station_Lat":19.43425,"End_Station_Lon":-99.162508,"End_Colonia":"San Rafael"},"84":{"Total_Rides":8,"Start_Station":27,"End_Station":16,"Start_Station_Name":"27 REFORMA-HAVRE","Start_Station_Lat":19.429115,"Start_Station_Lon":-99.162614,"Start_Colonia":"Juarez","End_Station_Name":"16 REFORMA-R\u00cdO TIBER","End_Station_Lat":19.427226,"End_Station_Lon":-99.168242,"End_Colonia":"Cuauhtemoc"},"85":{"Total_Rides":8,"Start_Station":13,"End_Station":1,"Start_Station_Name":"13 REFORMA-RIO MISSISSIPPI","Start_Station_Lat":19.42502,"Start_Station_Lon":-99.17231,"Start_Colonia":"Cuauhtemoc","End_Station_Name":"1 RIO SENA-RIO BALSAS","End_Station_Lat":19.4335714,"End_Station_Lon":-99.1678091,"End_Colonia":"Cuauhtemoc"},"86":{"Total_Rides":8,"Start_Station":54,"End_Station":64,"Start_Station_Name":"54 PARQUE ESPA\u00d1A-SONORA","Start_Station_Lat":19.416215,"Start_Station_Lon":-99.170825,"Start_Colonia":"Condesa","End_Station_Name":"64 SONORA-AMSTERDAM","End_Station_Lat":19.412877,"End_Station_Lon":-99.166986,"End_Colonia":"Hipodromo"},"87":{"Total_Rides":8,"Start_Station":21,"End_Station":27,"Start_Station_Name":"21 REFORMA-DUBLIN","Start_Station_Lat":19.42472,"Start_Station_Lon":-99.17206,"Start_Colonia":"Juarez","End_Station_Name":"27 REFORMA-HAVRE","End_Station_Lat":19.429115,"End_Station_Lon":-99.162614,"End_Colonia":"Juarez"},"88":{"Total_Rides":8,"Start_Station":7,"End_Station":7,"Start_Station_Name":"7 RIO ELBA-RIO LERMA","Start_Station_Lat":19.425468,"Start_Station_Lon":-99.175166,"Start_Colonia":"Cuauhtemoc","End_Station_Name":"7 RIO ELBA-RIO LERMA","End_Station_Lat":19.425468,"End_Station_Lon":-99.175166,"End_Colonia":"Cuauhtemoc"},"89":{"Total_Rides":8,"Start_Station":68,"End_Station":69,"Start_Station_Name":"68 TAMAULIPAS-MICHOACAN","Start_Station_Lat":19.411556,"Start_Station_Lon":-99.17406,"Start_Colonia":"Condesa","End_Station_Name":"69 MICHOACAN-AMSTERDAM","End_Station_Lat":19.410733,"End_Station_Lon":-99.168111,"End_Colonia":"Hipodromo"},"90":{"Total_Rides":8,"Start_Station":17,"End_Station":17,"Start_Station_Name":"17 REFORMA-RIO TIBER","Start_Station_Lat":19.427501,"Start_Station_Lon":-99.167125,"Start_Colonia":"Cuauhtemoc","End_Station_Name":"17 REFORMA-RIO TIBER","End_Station_Lat":19.427501,"End_Station_Lon":-99.167125,"End_Colonia":"Cuauhtemoc"},"91":{"Total_Rides":8,"Start_Station":53,"End_Station":72,"Start_Station_Name":"53 FERNANDO MONTES DE OCA-TULA","Start_Station_Lat":19.414773,"Start_Station_Lon":-99.178433,"Start_Colonia":"Condesa","End_Station_Name":"72 MAZATLAN-ALFONSO REYES","End_Station_Lat":19.409893,"End_Station_Lon":-99.179544,"End_Colonia":"Hipodromo Condesa"},"92":{"Total_Rides":8,"Start_Station":64,"End_Station":63,"Start_Station_Name":"64 SONORA-AMSTERDAM","Start_Station_Lat":19.412877,"Start_Station_Lon":-99.166986,"Start_Colonia":"Hipodromo","End_Station_Name":"63 NUEVO LEON- LAREDO","End_Station_Lat":19.413681,"End_Station_Lon":-99.171531,"End_Colonia":"Condesa"},"93":{"Total_Rides":8,"Start_Station":52,"End_Station":36,"Start_Station_Name":"52 HIDALGO-TRUJANO","Start_Station_Lat":19.436236,"Start_Station_Lon":-99.142039,"Start_Colonia":"Centro","End_Station_Name":"36 PUEBLA-VERACRUZ","End_Station_Lat":19.419725,"End_Station_Lon":-99.175778,"End_Colonia":"Piedad Narvarte"},"94":{"Total_Rides":8,"Start_Station":60,"End_Station":66,"Start_Station_Name":"60 MAZATLAN-FERNANDO MONTES DE OCA","Start_Station_Lat":19.414191,"Start_Station_Lon":-99.177123,"Start_Colonia":"Condesa","End_Station_Name":"66 MAZATLAN-FRANCISCO MARQUEZ","End_Station_Lat":19.411402,"End_Station_Lon":-99.178666,"End_Colonia":"Hipodromo Condesa"},"95":{"Total_Rides":8,"Start_Station":76,"End_Station":84,"Start_Station_Name":"76 CHILPANCINGO-CAMPECHE","Start_Station_Lat":19.408736,"Start_Station_Lon":-99.169913,"Start_Colonia":"Hipodromo","End_Station_Name":"84 CHILPANCINGO-TLAXCALA","End_Station_Lat":19.40702,"End_Station_Lon":-99.169587,"End_Colonia":"Hipodromo"},"96":{"Total_Rides":8,"Start_Station":2,"End_Station":16,"Start_Station_Name":"2 RIO GUADALQUIVIR-RIO BALSAS","Start_Station_Lat":19.431386,"Start_Station_Lon":-99.171695,"Start_Colonia":"Cuauhtemoc","End_Station_Name":"16 REFORMA-R\u00cdO TIBER","End_Station_Lat":19.427226,"End_Station_Lon":-99.168242,"End_Colonia":"Cuauhtemoc"},"97":{"Total_Rides":8,"Start_Station":72,"End_Station":49,"Start_Station_Name":"72 MAZATLAN-ALFONSO REYES","Start_Station_Lat":19.409893,"Start_Station_Lon":-99.179544,"Start_Colonia":"Hipodromo Condesa","End_Station_Name":"49 MAZATLAN-JUAN DE LA BARRERA","End_Station_Lat":19.416712,"End_Station_Lon":-99.175704,"End_Colonia":"Condesa"},"98":{"Total_Rides":8,"Start_Station":83,"End_Station":36,"Start_Station_Name":"83 NUEVO LEON-ALFONSO REYES","Start_Station_Lat":19.406296,"Start_Station_Lon":-99.172117,"Start_Colonia":"Hipodromo","End_Station_Name":"36 PUEBLA-VERACRUZ","End_Station_Lat":19.419725,"End_Station_Lon":-99.175778,"End_Colonia":"Piedad Narvarte"},"99":{"Total_Rides":8,"Start_Station":85,"End_Station":19,"Start_Station_Name":"85 ROSAS MORENO-SULLIVAN","Start_Station_Lat":19.43425,"Start_Station_Lon":-99.162508,"Start_Colonia":"San Rafael","End_Station_Name":"19 REFORMA-RIO RHIN","End_Station_Lat":19.429241,"End_Station_Lon":-99.163377,"End_Colonia":"Cuauhtemoc"},"100":{"Total_Rides":8,"Start_Station":54,"End_Station":84,"Start_Station_Name":"54 PARQUE ESPA\u00d1A-SONORA","Start_Station_Lat":19.416215,"Start_Station_Lon":-99.170825,"Start_Colonia":"Condesa","End_Station_Name":"84 CHILPANCINGO-TLAXCALA","End_Station_Lat":19.40702,"End_Station_Lon":-99.169587,"End_Colonia":"Hipodromo"},"101":{"Total_Rides":8,"Start_Station":64,"End_Station":45,"Start_Station_Name":"64 SONORA-AMSTERDAM","Start_Station_Lat":19.412877,"Start_Station_Lon":-99.166986,"Start_Colonia":"Hipodromo","End_Station_Name":"45 DURANGO-SONORA","End_Station_Lat":19.418649,"End_Station_Lon":-99.172127,"End_Colonia":"Roma Norte"},"102":{"Total_Rides":7,"Start_Station":19,"End_Station":13,"Start_Station_Name":"19 REFORMA-RIO RHIN","Start_Station_Lat":19.429241,"Start_Station_Lon":-99.163377,"Start_Colonia":"Cuauhtemoc","End_Station_Name":"13 REFORMA-RIO MISSISSIPPI","End_Station_Lat":19.42502,"End_Station_Lon":-99.17231,"End_Colonia":"Cuauhtemoc"},"103":{"Total_Rides":7,"Start_Station":83,"End_Station":66,"Start_Station_Name":"83 NUEVO LEON-ALFONSO REYES","Start_Station_Lat":19.406296,"Start_Station_Lon":-99.172117,"Start_Colonia":"Hipodromo","End_Station_Name":"66 MAZATLAN-FRANCISCO MARQUEZ","End_Station_Lat":19.411402,"End_Station_Lon":-99.178666,"End_Colonia":"Hipodromo Condesa"},"104":{"Total_Rides":7,"Start_Station":17,"End_Station":34,"Start_Station_Name":"17 REFORMA-RIO TIBER","Start_Station_Lat":19.427501,"Start_Station_Lon":-99.167125,"Start_Colonia":"Cuauhtemoc","End_Station_Name":"34 LIVERPOOL-GENOVA","End_Station_Lat":19.424725,"End_Station_Lon":-99.163331,"End_Colonia":"Juarez"},"105":{"Total_Rides":7,"Start_Station":2,"End_Station":15,"Start_Station_Name":"2 RIO GUADALQUIVIR-RIO BALSAS","Start_Station_Lat":19.431386,"Start_Station_Lon":-99.171695,"Start_Colonia":"Cuauhtemoc","End_Station_Name":"15 REFORMA-RIO MISSISSIPPI","End_Station_Lat":19.425477,"End_Station_Lon":-99.171567,"End_Colonia":"Cuauhtemoc"},"106":{"Total_Rides":7,"Start_Station":36,"End_Station":58,"Start_Station_Name":"36 PUEBLA-VERACRUZ","Start_Station_Lat":19.419725,"Start_Station_Lon":-99.175778,"Start_Colonia":"Piedad Narvarte","End_Station_Name":"58 PARQUE ESPA\u00d1A-JUAN DE LA BARRERA","End_Station_Lat":19.41568,"End_Station_Lon":-99.171793,"End_Colonia":"Condesa"},"107":{"Total_Rides":7,"Start_Station":58,"End_Station":64,"Start_Station_Name":"58 PARQUE ESPA\u00d1A-JUAN DE LA BARRERA","Start_Station_Lat":19.41568,"Start_Station_Lon":-99.171793,"Start_Colonia":"Condesa","End_Station_Name":"64 SONORA-AMSTERDAM","End_Station_Lat":19.412877,"End_Station_Lon":-99.166986,"End_Colonia":"Hipodromo"},"108":{"Total_Rides":7,"Start_Station":1,"End_Station":1,"Start_Station_Name":"1 RIO SENA-RIO BALSAS","Start_Station_Lat":19.4335714,"Start_Station_Lon":-99.1678091,"Start_Colonia":"Cuauhtemoc","End_Station_Name":"1 RIO SENA-RIO BALSAS","End_Station_Lat":19.4335714,"End_Station_Lon":-99.1678091,"End_Colonia":"Cuauhtemoc"},"109":{"Total_Rides":7,"Start_Station":69,"End_Station":71,"Start_Station_Name":"69 MICHOACAN-AMSTERDAM","Start_Station_Lat":19.410733,"Start_Station_Lon":-99.168111,"Start_Colonia":"Hipodromo","End_Station_Name":"71 AMSTERDAM-MICHOACAN","End_Station_Lat":19.411423,"End_Station_Lon":-99.171351,"End_Colonia":"Hipodromo"},"110":{"Total_Rides":7,"Start_Station":66,"End_Station":66,"Start_Station_Name":"66 MAZATLAN-FRANCISCO MARQUEZ","Start_Station_Lat":19.411402,"Start_Station_Lon":-99.178666,"Start_Colonia":"Hipodromo Condesa","End_Station_Name":"66 MAZATLAN-FRANCISCO MARQUEZ","End_Station_Lat":19.411402,"End_Station_Lon":-99.178666,"End_Colonia":"Hipodromo Condesa"},"111":{"Total_Rides":7,"Start_Station":52,"End_Station":64,"Start_Station_Name":"52 HIDALGO-TRUJANO","Start_Station_Lat":19.436236,"Start_Station_Lon":-99.142039,"Start_Colonia":"Centro","End_Station_Name":"64 SONORA-AMSTERDAM","End_Station_Lat":19.412877,"End_Station_Lon":-99.166986,"End_Colonia":"Hipodromo"},"112":{"Total_Rides":7,"Start_Station":9,"End_Station":2,"Start_Station_Name":"9 RIO GUADALQUIVIR-RIO LERMA","Start_Station_Lat":19.428009,"Start_Station_Lon":-99.169918,"Start_Colonia":"Cuauhtemoc","End_Station_Name":"2 RIO GUADALQUIVIR-RIO BALSAS","End_Station_Lat":19.431386,"End_Station_Lon":-99.171695,"End_Colonia":"Cuauhtemoc"},"113":{"Total_Rides":7,"Start_Station":7,"End_Station":11,"Start_Station_Name":"7 RIO ELBA-RIO LERMA","Start_Station_Lat":19.425468,"Start_Station_Lon":-99.175166,"Start_Colonia":"Cuauhtemoc","End_Station_Name":"11 RIO AMAZONAS-RIO LERMA","End_Station_Lat":19.430992,"End_Station_Lon":-99.163593,"End_Colonia":"Cuauhtemoc"},"114":{"Total_Rides":7,"Start_Station":53,"End_Station":53,"Start_Station_Name":"53 FERNANDO MONTES DE OCA-TULA","Start_Station_Lat":19.414773,"Start_Station_Lon":-99.178433,"Start_Colonia":"Condesa","End_Station_Name":"53 FERNANDO MONTES DE OCA-TULA","End_Station_Lat":19.414773,"End_Station_Lon":-99.178433,"End_Colonia":"Condesa"},"115":{"Total_Rides":7,"Start_Station":17,"End_Station":35,"Start_Station_Name":"17 REFORMA-RIO TIBER","Start_Station_Lat":19.427501,"Start_Station_Lon":-99.167125,"Start_Colonia":"Cuauhtemoc","End_Station_Name":"35 LIVERPOOL-GENOVA","End_Station_Lat":19.424674,"End_Station_Lon":-99.163292,"End_Colonia":"Juarez"},"116":{"Total_Rides":7,"Start_Station":77,"End_Station":83,"Start_Station_Name":"77 CHOAPAN-TAMAULIPAS","Start_Station_Lat":19.406765,"Start_Station_Lon":-99.178321,"Start_Colonia":"Hipodromo","End_Station_Name":"83 NUEVO LEON-ALFONSO REYES","End_Station_Lat":19.406296,"End_Station_Lon":-99.172117,"End_Colonia":"Hipodromo"},"117":{"Total_Rides":7,"Start_Station":83,"End_Station":71,"Start_Station_Name":"83 NUEVO LEON-ALFONSO REYES","Start_Station_Lat":19.406296,"Start_Station_Lon":-99.172117,"Start_Colonia":"Hipodromo","End_Station_Name":"71 AMSTERDAM-MICHOACAN","End_Station_Lat":19.411423,"End_Station_Lon":-99.171351,"End_Colonia":"Hipodromo"},"118":{"Total_Rides":7,"Start_Station":67,"End_Station":70,"Start_Station_Name":"67 VICENTE SUAREZ-MICHOACAN","Start_Station_Lat":19.411797,"Start_Station_Lon":-99.17588,"Start_Colonia":"Condesa","End_Station_Name":"70 PARQUE MEXICO-MICHOACAN","End_Station_Lat":19.411272,"End_Station_Lon":-99.169718,"End_Colonia":"Hipodromo"},"119":{"Total_Rides":7,"Start_Station":66,"End_Station":75,"Start_Station_Name":"66 MAZATLAN-FRANCISCO MARQUEZ","Start_Station_Lat":19.411402,"Start_Station_Lon":-99.178666,"Start_Colonia":"Hipodromo Condesa","End_Station_Name":"75 ALFONSO REYES-ATLIXCO","End_Station_Lat":19.408722,"End_Station_Lon":-99.17669,"End_Colonia":"Hipodromo Condesa"},"120":{"Total_Rides":7,"Start_Station":18,"End_Station":73,"Start_Station_Name":"18 REFORMA-RIO RHIN","Start_Station_Lat":19.42888,"Start_Station_Lon":-99.164176,"Start_Colonia":"Cuauhtemoc","End_Station_Name":"73 CAMPECHE-TAMAULIPAS","End_Station_Lat":19.410245,"End_Station_Lon":-99.175612,"End_Colonia":"Hipodromo Condesa"},"121":{"Total_Rides":7,"Start_Station":70,"End_Station":84,"Start_Station_Name":"70 PARQUE MEXICO-MICHOACAN","Start_Station_Lat":19.411272,"Start_Station_Lon":-99.169718,"Start_Colonia":"Hipodromo","End_Station_Name":"84 CHILPANCINGO-TLAXCALA","End_Station_Lat":19.40702,"End_Station_Lon":-99.169587,"End_Colonia":"Hipodromo"},"122":{"Total_Rides":7,"Start_Station":20,"End_Station":25,"Start_Station_Name":"20 REFORMA-RIO TAMESIS","Start_Station_Lat":19.430964,"Start_Station_Lon":-99.160206,"Start_Colonia":"Cuauhtemoc","End_Station_Name":"25 REFORMA-ESTOCOLMO","End_Station_Lat":19.427317,"End_Station_Lon":-99.166662,"End_Colonia":"Juarez"},"123":{"Total_Rides":7,"Start_Station":13,"End_Station":19,"Start_Station_Name":"13 REFORMA-RIO MISSISSIPPI","Start_Station_Lat":19.42502,"Start_Station_Lon":-99.17231,"Start_Colonia":"Cuauhtemoc","End_Station_Name":"19 REFORMA-RIO RHIN","End_Station_Lat":19.429241,"End_Station_Lon":-99.163377,"End_Colonia":"Cuauhtemoc"},"124":{"Total_Rides":7,"Start_Station":36,"End_Station":74,"Start_Station_Name":"36 PUEBLA-VERACRUZ","Start_Station_Lat":19.419725,"Start_Station_Lon":-99.175778,"Start_Colonia":"Piedad Narvarte","End_Station_Name":"74 NUEVO LEON-OZULAMA","End_Station_Lat":19.410343,"End_Station_Lon":-99.172831,"End_Colonia":"Hipodromo"},"125":{"Total_Rides":7,"Start_Station":84,"End_Station":71,"Start_Station_Name":"84 CHILPANCINGO-TLAXCALA","Start_Station_Lat":19.40702,"Start_Station_Lon":-99.169587,"Start_Colonia":"Hipodromo","End_Station_Name":"71 AMSTERDAM-MICHOACAN","End_Station_Lat":19.411423,"End_Station_Lon":-99.171351,"End_Colonia":"Hipodromo"},"126":{"Total_Rides":7,"Start_Station":22,"End_Station":83,"Start_Station_Name":"22 REFORMA-MANCHESTER","Start_Station_Lat":19.424375,"Start_Station_Lon":-99.172575,"Start_Colonia":"Juarez","End_Station_Name":"83 NUEVO LEON-ALFONSO REYES","End_Station_Lat":19.406296,"End_Station_Lon":-99.172117,"End_Colonia":"Hipodromo"},"127":{"Total_Rides":7,"Start_Station":31,"End_Station":30,"Start_Station_Name":"31 HAMBURGO-INSURGENTES","Start_Station_Lat":19.427838,"Start_Station_Lon":-99.161193,"Start_Colonia":"Juarez","End_Station_Name":"30 HAMBURGO-GENOVA","End_Station_Lat":19.426442,"End_Station_Lon":-99.164323,"End_Colonia":"Juarez"},"128":{"Total_Rides":7,"Start_Station":49,"End_Station":66,"Start_Station_Name":"49 MAZATLAN-JUAN DE LA BARRERA","Start_Station_Lat":19.416712,"Start_Station_Lon":-99.175704,"Start_Colonia":"Condesa","End_Station_Name":"66 MAZATLAN-FRANCISCO MARQUEZ","End_Station_Lat":19.411402,"End_Station_Lon":-99.178666,"End_Colonia":"Hipodromo Condesa"},"129":{"Total_Rides":7,"Start_Station":69,"End_Station":53,"Start_Station_Name":"69 MICHOACAN-AMSTERDAM","Start_Station_Lat":19.410733,"Start_Station_Lon":-99.168111,"Start_Colonia":"Hipodromo","End_Station_Name":"53 FERNANDO MONTES DE OCA-TULA","End_Station_Lat":19.414773,"End_Station_Lon":-99.178433,"End_Colonia":"Condesa"},"130":{"Total_Rides":7,"Start_Station":74,"End_Station":69,"Start_Station_Name":"74 NUEVO LEON-OZULAMA","Start_Station_Lat":19.410343,"Start_Station_Lon":-99.172831,"Start_Colonia":"Hipodromo","End_Station_Name":"69 MICHOACAN-AMSTERDAM","End_Station_Lat":19.410733,"End_Station_Lon":-99.168111,"End_Colonia":"Hipodromo"},"131":{"Total_Rides":7,"Start_Station":80,"End_Station":68,"Start_Station_Name":"80 NUEVO LEON-AGUASCALIENTES","Start_Station_Lat":19.407307,"Start_Station_Lon":-99.172118,"Start_Colonia":"Hipodromo","End_Station_Name":"68 TAMAULIPAS-MICHOACAN","End_Station_Lat":19.411556,"End_Station_Lon":-99.17406,"End_Colonia":"Condesa"},"132":{"Total_Rides":7,"Start_Station":36,"End_Station":49,"Start_Station_Name":"36 PUEBLA-VERACRUZ","Start_Station_Lat":19.419725,"Start_Station_Lon":-99.175778,"Start_Colonia":"Piedad Narvarte","End_Station_Name":"49 MAZATLAN-JUAN DE LA BARRERA","End_Station_Lat":19.416712,"End_Station_Lon":-99.175704,"End_Colonia":"Condesa"},"133":{"Total_Rides":7,"Start_Station":34,"End_Station":3,"Start_Station_Name":"34 LIVERPOOL-GENOVA","Start_Station_Lat":19.424725,"Start_Station_Lon":-99.163331,"Start_Colonia":"Juarez","End_Station_Name":"3 REFORMA-INSURGENTES","End_Station_Lat":19.431655,"End_Station_Lon":-99.158668,"End_Colonia":"Juarez"},"134":{"Total_Rides":7,"Start_Station":84,"End_Station":64,"Start_Station_Name":"84 CHILPANCINGO-TLAXCALA","Start_Station_Lat":19.40702,"Start_Station_Lon":-99.169587,"Start_Colonia":"Hipodromo","End_Station_Name":"64 SONORA-AMSTERDAM","End_Station_Lat":19.412877,"End_Station_Lon":-99.166986,"End_Colonia":"Hipodromo"},"135":{"Total_Rides":7,"Start_Station":1,"End_Station":7,"Start_Station_Name":"1 RIO SENA-RIO BALSAS","Start_Station_Lat":19.4335714,"Start_Station_Lon":-99.1678091,"Start_Colonia":"Cuauhtemoc","End_Station_Name":"7 RIO ELBA-RIO LERMA","End_Station_Lat":19.425468,"End_Station_Lon":-99.175166,"End_Colonia":"Cuauhtemoc"},"136":{"Total_Rides":7,"Start_Station":77,"End_Station":73,"Start_Station_Name":"77 CHOAPAN-TAMAULIPAS","Start_Station_Lat":19.406765,"Start_Station_Lon":-99.178321,"Start_Colonia":"Hipodromo","End_Station_Name":"73 CAMPECHE-TAMAULIPAS","End_Station_Lat":19.410245,"End_Station_Lon":-99.175612,"End_Colonia":"Hipodromo Condesa"},"137":{"Total_Rides":7,"Start_Station":12,"End_Station":12,"Start_Station_Name":"12 RIO LERMA-VILLALONGIN","Start_Station_Lat":19.432313,"Start_Station_Lon":-99.161597,"Start_Colonia":"Cuauhtemoc","End_Station_Name":"12 RIO LERMA-VILLALONGIN","End_Station_Lat":19.432313,"End_Station_Lon":-99.161597,"End_Colonia":"Cuauhtemoc"},"138":{"Total_Rides":7,"Start_Station":31,"End_Station":32,"Start_Station_Name":"31 HAMBURGO-INSURGENTES","Start_Station_Lat":19.427838,"Start_Station_Lon":-99.161193,"Start_Colonia":"Juarez","End_Station_Name":"32 LONDRES-SEVILLA","End_Station_Lat":19.422705,"End_Station_Lon":-99.169922,"End_Colonia":"Juarez"},"139":{"Total_Rides":7,"Start_Station":73,"End_Station":36,"Start_Station_Name":"73 CAMPECHE-TAMAULIPAS","Start_Station_Lat":19.410245,"Start_Station_Lon":-99.175612,"Start_Colonia":"Hipodromo Condesa","End_Station_Name":"36 PUEBLA-VERACRUZ","End_Station_Lat":19.419725,"End_Station_Lon":-99.175778,"End_Colonia":"Piedad Narvarte"},"140":{"Total_Rides":7,"Start_Station":69,"End_Station":70,"Start_Station_Name":"69 MICHOACAN-AMSTERDAM","Start_Station_Lat":19.410733,"Start_Station_Lon":-99.168111,"Start_Colonia":"Hipodromo","End_Station_Name":"70 PARQUE MEXICO-MICHOACAN","End_Station_Lat":19.411272,"End_Station_Lon":-99.169718,"End_Colonia":"Hipodromo"},"141":{"Total_Rides":7,"Start_Station":31,"End_Station":31,"Start_Station_Name":"31 HAMBURGO-INSURGENTES","Start_Station_Lat":19.427838,"Start_Station_Lon":-99.161193,"Start_Colonia":"Juarez","End_Station_Name":"31 HAMBURGO-INSURGENTES","End_Station_Lat":19.427838,"End_Station_Lon":-99.161193,"End_Colonia":"Juarez"},"142":{"Total_Rides":7,"Start_Station":67,"End_Station":74,"Start_Station_Name":"67 VICENTE SUAREZ-MICHOACAN","Start_Station_Lat":19.411797,"Start_Station_Lon":-99.17588,"Start_Colonia":"Condesa","End_Station_Name":"74 NUEVO LEON-OZULAMA","End_Station_Lat":19.410343,"End_Station_Lon":-99.172831,"End_Colonia":"Hipodromo"},"143":{"Total_Rides":7,"Start_Station":36,"End_Station":63,"Start_Station_Name":"36 PUEBLA-VERACRUZ","Start_Station_Lat":19.419725,"Start_Station_Lon":-99.175778,"Start_Colonia":"Piedad Narvarte","End_Station_Name":"63 NUEVO LEON- LAREDO","End_Station_Lat":19.413681,"End_Station_Lon":-99.171531,"End_Colonia":"Condesa"},"144":{"Total_Rides":7,"Start_Station":77,"End_Station":68,"Start_Station_Name":"77 CHOAPAN-TAMAULIPAS","Start_Station_Lat":19.406765,"Start_Station_Lon":-99.178321,"Start_Colonia":"Hipodromo","End_Station_Name":"68 TAMAULIPAS-MICHOACAN","End_Station_Lat":19.411556,"End_Station_Lon":-99.17406,"End_Colonia":"Condesa"},"145":{"Total_Rides":7,"Start_Station":77,"End_Station":67,"Start_Station_Name":"77 CHOAPAN-TAMAULIPAS","Start_Station_Lat":19.406765,"Start_Station_Lon":-99.178321,"Start_Colonia":"Hipodromo","End_Station_Name":"67 VICENTE SUAREZ-MICHOACAN","End_Station_Lat":19.411797,"End_Station_Lon":-99.17588,"End_Colonia":"Condesa"},"146":{"Total_Rides":7,"Start_Station":35,"End_Station":23,"Start_Station_Name":"35 LIVERPOOL-GENOVA","Start_Station_Lat":19.424674,"Start_Station_Lon":-99.163292,"Start_Colonia":"Juarez","End_Station_Name":"23 REFORMA-PRAGA","End_Station_Lat":19.42517,"End_Station_Lon":-99.17105,"End_Colonia":"Juarez"},"147":{"Total_Rides":7,"Start_Station":84,"End_Station":70,"Start_Station_Name":"84 CHILPANCINGO-TLAXCALA","Start_Station_Lat":19.40702,"Start_Station_Lon":-99.169587,"Start_Colonia":"Hipodromo","End_Station_Name":"70 PARQUE MEXICO-MICHOACAN","End_Station_Lat":19.411272,"End_Station_Lon":-99.169718,"End_Colonia":"Hipodromo"},"148":{"Total_Rides":7,"Start_Station":27,"End_Station":14,"Start_Station_Name":"27 REFORMA-HAVRE","Start_Station_Lat":19.429115,"Start_Station_Lon":-99.162614,"Start_Colonia":"Juarez","End_Station_Name":"14 REFORMA-RIO DE PLATA","End_Station_Lat":19.424768,"End_Station_Lon":-99.173261,"End_Colonia":"Cuauhtemoc"},"149":{"Total_Rides":7,"Start_Station":18,"End_Station":20,"Start_Station_Name":"18 REFORMA-RIO RHIN","Start_Station_Lat":19.42888,"Start_Station_Lon":-99.164176,"Start_Colonia":"Cuauhtemoc","End_Station_Name":"20 REFORMA-RIO TAMESIS","End_Station_Lat":19.430964,"End_Station_Lon":-99.160206,"End_Colonia":"Cuauhtemoc"},"150":{"Total_Rides":7,"Start_Station":64,"End_Station":13,"Start_Station_Name":"64 SONORA-AMSTERDAM","Start_Station_Lat":19.412877,"Start_Station_Lon":-99.166986,"Start_Colonia":"Hipodromo","End_Station_Name":"13 REFORMA-RIO MISSISSIPPI","End_Station_Lat":19.42502,"End_Station_Lon":-99.17231,"End_Colonia":"Cuauhtemoc"},"151":{"Total_Rides":7,"Start_Station":84,"End_Station":68,"Start_Station_Name":"84 CHILPANCINGO-TLAXCALA","Start_Station_Lat":19.40702,"Start_Station_Lon":-99.169587,"Start_Colonia":"Hipodromo","End_Station_Name":"68 TAMAULIPAS-MICHOACAN","End_Station_Lat":19.411556,"End_Station_Lon":-99.17406,"End_Colonia":"Condesa"},"152":{"Total_Rides":7,"Start_Station":62,"End_Station":62,"Start_Station_Name":"62 FERNANDO MONTES DE OCA-AMATLAN","Start_Station_Lat":19.413322,"Start_Station_Lon":-99.175202,"Start_Colonia":"Condesa","End_Station_Name":"62 FERNANDO MONTES DE OCA-AMATLAN","End_Station_Lat":19.413322,"End_Station_Lon":-99.175202,"End_Colonia":"Condesa"},"153":{"Total_Rides":7,"Start_Station":84,"End_Station":59,"Start_Station_Name":"84 CHILPANCINGO-TLAXCALA","Start_Station_Lat":19.40702,"Start_Station_Lon":-99.169587,"Start_Colonia":"Hipodromo","End_Station_Name":"59 POPOCATEPETL-AMSTERDAM","End_Station_Lat":19.415121,"End_Station_Lon":-99.166661,"End_Colonia":"Hipodromo"},"154":{"Total_Rides":6,"Start_Station":34,"End_Station":25,"Start_Station_Name":"34 LIVERPOOL-GENOVA","Start_Station_Lat":19.424725,"Start_Station_Lon":-99.163331,"Start_Colonia":"Juarez","End_Station_Name":"25 REFORMA-ESTOCOLMO","End_Station_Lat":19.427317,"End_Station_Lon":-99.166662,"End_Colonia":"Juarez"},"155":{"Total_Rides":6,"Start_Station":24,"End_Station":56,"Start_Station_Name":"24 REFORMA-VARSOVIA","Start_Station_Lat":19.42647,"Start_Station_Lon":-99.16822,"Start_Colonia":"Juarez","End_Station_Name":"56 ALVARO OBREGON-MEDELLIN","End_Station_Lat":19.416959,"End_Station_Lon":-99.165702,"End_Colonia":"Roma Norte"},"156":{"Total_Rides":6,"Start_Station":49,"End_Station":56,"Start_Station_Name":"49 MAZATLAN-JUAN DE LA BARRERA","Start_Station_Lat":19.416712,"Start_Station_Lon":-99.175704,"Start_Colonia":"Condesa","End_Station_Name":"56 ALVARO OBREGON-MEDELLIN","End_Station_Lat":19.416959,"End_Station_Lon":-99.165702,"End_Colonia":"Roma Norte"},"157":{"Total_Rides":6,"Start_Station":4,"End_Station":27,"Start_Station_Name":"4 RIO NILO-RIO PANUCO","Start_Station_Lat":19.428309,"Start_Station_Lon":-99.171713,"Start_Colonia":"Cuauhtemoc","End_Station_Name":"27 REFORMA-HAVRE","End_Station_Lat":19.429115,"End_Station_Lon":-99.162614,"End_Colonia":"Juarez"},"158":{"Total_Rides":6,"Start_Station":70,"End_Station":67,"Start_Station_Name":"70 PARQUE MEXICO-MICHOACAN","Start_Station_Lat":19.411272,"Start_Station_Lon":-99.169718,"Start_Colonia":"Hipodromo","End_Station_Name":"67 VICENTE SUAREZ-MICHOACAN","End_Station_Lat":19.411797,"End_Station_Lon":-99.17588,"End_Colonia":"Condesa"},"159":{"Total_Rides":6,"Start_Station":31,"End_Station":56,"Start_Station_Name":"31 HAMBURGO-INSURGENTES","Start_Station_Lat":19.427838,"Start_Station_Lon":-99.161193,"Start_Colonia":"Juarez","End_Station_Name":"56 ALVARO OBREGON-MEDELLIN","End_Station_Lat":19.416959,"End_Station_Lon":-99.165702,"End_Colonia":"Roma Norte"},"160":{"Total_Rides":6,"Start_Station":16,"End_Station":85,"Start_Station_Name":"16 REFORMA-R\u00cdO TIBER","Start_Station_Lat":19.427226,"Start_Station_Lon":-99.168242,"Start_Colonia":"Cuauhtemoc","End_Station_Name":"85 ROSAS MORENO-SULLIVAN","End_Station_Lat":19.43425,"End_Station_Lon":-99.162508,"End_Colonia":"San Rafael"},"161":{"Total_Rides":6,"Start_Station":15,"End_Station":27,"Start_Station_Name":"15 REFORMA-RIO MISSISSIPPI","Start_Station_Lat":19.425477,"Start_Station_Lon":-99.171567,"Start_Colonia":"Cuauhtemoc","End_Station_Name":"27 REFORMA-HAVRE","End_Station_Lat":19.429115,"End_Station_Lon":-99.162614,"End_Colonia":"Juarez"},"162":{"Total_Rides":6,"Start_Station":26,"End_Station":26,"Start_Station_Name":"26 REFORMA-VERSALLES","Start_Station_Lat":19.432685,"Start_Station_Lon":-99.154726,"Start_Colonia":"Juarez","End_Station_Name":"26 REFORMA-VERSALLES","End_Station_Lat":19.432685,"End_Station_Lon":-99.154726,"End_Colonia":"Juarez"},"163":{"Total_Rides":6,"Start_Station":27,"End_Station":21,"Start_Station_Name":"27 REFORMA-HAVRE","Start_Station_Lat":19.429115,"Start_Station_Lon":-99.162614,"Start_Colonia":"Juarez","End_Station_Name":"21 REFORMA-DUBLIN","End_Station_Lat":19.42472,"End_Station_Lon":-99.17206,"End_Colonia":"Juarez"},"164":{"Total_Rides":6,"Start_Station":34,"End_Station":17,"Start_Station_Name":"34 LIVERPOOL-GENOVA","Start_Station_Lat":19.424725,"Start_Station_Lon":-99.163331,"Start_Colonia":"Juarez","End_Station_Name":"17 REFORMA-RIO TIBER","End_Station_Lat":19.427501,"End_Station_Lon":-99.167125,"End_Colonia":"Cuauhtemoc"},"165":{"Total_Rides":6,"Start_Station":46,"End_Station":68,"Start_Station_Name":"46 DURANGO-SALAMANCA","Start_Station_Lat":19.419214,"Start_Station_Lon":-99.169732,"Start_Colonia":"Roma Norte","End_Station_Name":"68 TAMAULIPAS-MICHOACAN","End_Station_Lat":19.411556,"End_Station_Lon":-99.17406,"End_Colonia":"Condesa"},"166":{"Total_Rides":6,"Start_Station":14,"End_Station":27,"Start_Station_Name":"14 REFORMA-RIO DE PLATA","Start_Station_Lat":19.424768,"Start_Station_Lon":-99.173261,"Start_Colonia":"Cuauhtemoc","End_Station_Name":"27 REFORMA-HAVRE","End_Station_Lat":19.429115,"End_Station_Lon":-99.162614,"End_Colonia":"Juarez"},"167":{"Total_Rides":6,"Start_Station":23,"End_Station":33,"Start_Station_Name":"23 REFORMA-PRAGA","Start_Station_Lat":19.42517,"Start_Station_Lon":-99.17105,"Start_Colonia":"Juarez","End_Station_Name":"E33 LONDRES-FLORENCIA","End_Station_Lat":19.424234,"End_Station_Lon":-99.166431,"End_Colonia":"Juarez"},"168":{"Total_Rides":6,"Start_Station":17,"End_Station":31,"Start_Station_Name":"17 REFORMA-RIO TIBER","Start_Station_Lat":19.427501,"Start_Station_Lon":-99.167125,"Start_Colonia":"Cuauhtemoc","End_Station_Name":"31 HAMBURGO-INSURGENTES","End_Station_Lat":19.427838,"End_Station_Lon":-99.161193,"End_Colonia":"Juarez"},"169":{"Total_Rides":6,"Start_Station":70,"End_Station":59,"Start_Station_Name":"70 PARQUE MEXICO-MICHOACAN","Start_Station_Lat":19.411272,"Start_Station_Lon":-99.169718,"Start_Colonia":"Hipodromo","End_Station_Name":"59 POPOCATEPETL-AMSTERDAM","End_Station_Lat":19.415121,"End_Station_Lon":-99.166661,"End_Colonia":"Hipodromo"},"170":{"Total_Rides":6,"Start_Station":83,"End_Station":69,"Start_Station_Name":"83 NUEVO LEON-ALFONSO REYES","Start_Station_Lat":19.406296,"Start_Station_Lon":-99.172117,"Start_Colonia":"Hipodromo","End_Station_Name":"69 MICHOACAN-AMSTERDAM","End_Station_Lat":19.410733,"End_Station_Lon":-99.168111,"End_Colonia":"Hipodromo"},"171":{"Total_Rides":6,"Start_Station":1,"End_Station":2,"Start_Station_Name":"1 RIO SENA-RIO BALSAS","Start_Station_Lat":19.4335714,"Start_Station_Lon":-99.1678091,"Start_Colonia":"Cuauhtemoc","End_Station_Name":"2 RIO GUADALQUIVIR-RIO BALSAS","End_Station_Lat":19.431386,"End_Station_Lon":-99.171695,"End_Colonia":"Cuauhtemoc"},"172":{"Total_Rides":6,"Start_Station":27,"End_Station":13,"Start_Station_Name":"27 REFORMA-HAVRE","Start_Station_Lat":19.429115,"Start_Station_Lon":-99.162614,"Start_Colonia":"Juarez","End_Station_Name":"13 REFORMA-RIO MISSISSIPPI","End_Station_Lat":19.42502,"End_Station_Lon":-99.17231,"End_Colonia":"Cuauhtemoc"},"173":{"Total_Rides":6,"Start_Station":78,"End_Station":78,"Start_Station_Name":"78 BENJAMIN HILL-TAMAULIPAS","Start_Station_Lat":19.407503,"Start_Station_Lon":-99.177382,"Start_Colonia":"Hipodromo","End_Station_Name":"78 BENJAMIN HILL-TAMAULIPAS","End_Station_Lat":19.407503,"End_Station_Lon":-99.177382,"End_Colonia":"Hipodromo"},"174":{"Total_Rides":6,"Start_Station":83,"End_Station":49,"Start_Station_Name":"83 NUEVO LEON-ALFONSO REYES","Start_Station_Lat":19.406296,"Start_Station_Lon":-99.172117,"Start_Colonia":"Hipodromo","End_Station_Name":"49 MAZATLAN-JUAN DE LA BARRERA","End_Station_Lat":19.416712,"End_Station_Lon":-99.175704,"End_Colonia":"Condesa"},"175":{"Total_Rides":6,"Start_Station":23,"End_Station":23,"Start_Station_Name":"23 REFORMA-PRAGA","Start_Station_Lat":19.42517,"Start_Station_Lon":-99.17105,"Start_Colonia":"Juarez","End_Station_Name":"23 REFORMA-PRAGA","End_Station_Lat":19.42517,"End_Station_Lon":-99.17105,"End_Colonia":"Juarez"},"176":{"Total_Rides":6,"Start_Station":16,"End_Station":20,"Start_Station_Name":"16 REFORMA-R\u00cdO TIBER","Start_Station_Lat":19.427226,"Start_Station_Lon":-99.168242,"Start_Colonia":"Cuauhtemoc","End_Station_Name":"20 REFORMA-RIO TAMESIS","End_Station_Lat":19.430964,"End_Station_Lon":-99.160206,"End_Colonia":"Cuauhtemoc"},"177":{"Total_Rides":6,"Start_Station":38,"End_Station":56,"Start_Station_Name":"38 COZUMEL-PUEBLA","Start_Station_Lat":19.420801,"Start_Station_Lon":-99.171407,"Start_Colonia":"Roma Norte","End_Station_Name":"56 ALVARO OBREGON-MEDELLIN","End_Station_Lat":19.416959,"End_Station_Lon":-99.165702,"End_Colonia":"Roma Norte"},"178":{"Total_Rides":6,"Start_Station":9,"End_Station":9,"Start_Station_Name":"9 RIO GUADALQUIVIR-RIO LERMA","Start_Station_Lat":19.428009,"Start_Station_Lon":-99.169918,"Start_Colonia":"Cuauhtemoc","End_Station_Name":"9 RIO GUADALQUIVIR-RIO LERMA","End_Station_Lat":19.428009,"End_Station_Lon":-99.169918,"End_Colonia":"Cuauhtemoc"},"179":{"Total_Rides":6,"Start_Station":4,"End_Station":1,"Start_Station_Name":"4 RIO NILO-RIO PANUCO","Start_Station_Lat":19.428309,"Start_Station_Lon":-99.171713,"Start_Colonia":"Cuauhtemoc","End_Station_Name":"1 RIO SENA-RIO BALSAS","End_Station_Lat":19.4335714,"End_Station_Lon":-99.1678091,"End_Colonia":"Cuauhtemoc"},"180":{"Total_Rides":6,"Start_Station":63,"End_Station":36,"Start_Station_Name":"63 NUEVO LEON- LAREDO","Start_Station_Lat":19.413681,"Start_Station_Lon":-99.171531,"Start_Colonia":"Condesa","End_Station_Name":"36 PUEBLA-VERACRUZ","End_Station_Lat":19.419725,"End_Station_Lon":-99.175778,"End_Colonia":"Piedad Narvarte"},"181":{"Total_Rides":6,"Start_Station":83,"End_Station":67,"Start_Station_Name":"83 NUEVO LEON-ALFONSO REYES","Start_Station_Lat":19.406296,"Start_Station_Lon":-99.172117,"Start_Colonia":"Hipodromo","End_Station_Name":"67 VICENTE SUAREZ-MICHOACAN","End_Station_Lat":19.411797,"End_Station_Lon":-99.17588,"End_Colonia":"Condesa"},"182":{"Total_Rides":6,"Start_Station":24,"End_Station":24,"Start_Station_Name":"24 REFORMA-VARSOVIA","Start_Station_Lat":19.42647,"Start_Station_Lon":-99.16822,"Start_Colonia":"Juarez","End_Station_Name":"24 REFORMA-VARSOVIA","End_Station_Lat":19.42647,"End_Station_Lon":-99.16822,"End_Colonia":"Juarez"},"183":{"Total_Rides":6,"Start_Station":6,"End_Station":27,"Start_Station_Name":"6 RIO PANUCO-RIO SENA","Start_Station_Lat":19.430922,"Start_Station_Lon":-99.166959,"Start_Colonia":"Cuauhtemoc","End_Station_Name":"27 REFORMA-HAVRE","End_Station_Lat":19.429115,"End_Station_Lon":-99.162614,"End_Colonia":"Juarez"},"184":{"Total_Rides":6,"Start_Station":1,"End_Station":17,"Start_Station_Name":"1 RIO SENA-RIO BALSAS","Start_Station_Lat":19.4335714,"Start_Station_Lon":-99.1678091,"Start_Colonia":"Cuauhtemoc","End_Station_Name":"17 REFORMA-RIO TIBER","End_Station_Lat":19.427501,"End_Station_Lon":-99.167125,"End_Colonia":"Cuauhtemoc"},"185":{"Total_Rides":6,"Start_Station":74,"End_Station":78,"Start_Station_Name":"74 NUEVO LEON-OZULAMA","Start_Station_Lat":19.410343,"Start_Station_Lon":-99.172831,"Start_Colonia":"Hipodromo","End_Station_Name":"78 BENJAMIN HILL-TAMAULIPAS","End_Station_Lat":19.407503,"End_Station_Lon":-99.177382,"End_Colonia":"Hipodromo"},"186":{"Total_Rides":6,"Start_Station":79,"End_Station":71,"Start_Station_Name":"79 SALTILLO-ALFONSO REYES","Start_Station_Lat":19.407534,"Start_Station_Lon":-99.174427,"Start_Colonia":"Hipodromo","End_Station_Name":"71 AMSTERDAM-MICHOACAN","End_Station_Lat":19.411423,"End_Station_Lon":-99.171351,"End_Colonia":"Hipodromo"},"187":{"Total_Rides":6,"Start_Station":78,"End_Station":64,"Start_Station_Name":"78 BENJAMIN HILL-TAMAULIPAS","Start_Station_Lat":19.407503,"Start_Station_Lon":-99.177382,"Start_Colonia":"Hipodromo","End_Station_Name":"64 SONORA-AMSTERDAM","End_Station_Lat":19.412877,"End_Station_Lon":-99.166986,"End_Colonia":"Hipodromo"},"188":{"Total_Rides":6,"Start_Station":67,"End_Station":49,"Start_Station_Name":"67 VICENTE SUAREZ-MICHOACAN","Start_Station_Lat":19.411797,"Start_Station_Lon":-99.17588,"Start_Colonia":"Condesa","End_Station_Name":"49 MAZATLAN-JUAN DE LA BARRERA","End_Station_Lat":19.416712,"End_Station_Lon":-99.175704,"End_Colonia":"Condesa"},"189":{"Total_Rides":6,"Start_Station":80,"End_Station":74,"Start_Station_Name":"80 NUEVO LEON-AGUASCALIENTES","Start_Station_Lat":19.407307,"Start_Station_Lon":-99.172118,"Start_Colonia":"Hipodromo","End_Station_Name":"74 NUEVO LEON-OZULAMA","End_Station_Lat":19.410343,"End_Station_Lon":-99.172831,"End_Colonia":"Hipodromo"},"190":{"Total_Rides":6,"Start_Station":69,"End_Station":64,"Start_Station_Name":"69 MICHOACAN-AMSTERDAM","Start_Station_Lat":19.410733,"Start_Station_Lon":-99.168111,"Start_Colonia":"Hipodromo","End_Station_Name":"64 SONORA-AMSTERDAM","End_Station_Lat":19.412877,"End_Station_Lon":-99.166986,"End_Colonia":"Hipodromo"},"191":{"Total_Rides":6,"Start_Station":45,"End_Station":64,"Start_Station_Name":"45 DURANGO-SONORA","Start_Station_Lat":19.418649,"Start_Station_Lon":-99.172127,"Start_Colonia":"Roma Norte","End_Station_Name":"64 SONORA-AMSTERDAM","End_Station_Lat":19.412877,"End_Station_Lon":-99.166986,"End_Colonia":"Hipodromo"},"192":{"Total_Rides":6,"Start_Station":69,"End_Station":41,"Start_Station_Name":"69 MICHOACAN-AMSTERDAM","Start_Station_Lat":19.410733,"Start_Station_Lon":-99.168111,"Start_Colonia":"Hipodromo","End_Station_Name":"41 REFORMA-AV. DE LA REPUBLICA","End_Station_Lat":19.435637,"End_Station_Lon":-99.150137,"End_Colonia":"Tabacalera"},"193":{"Total_Rides":6,"Start_Station":64,"End_Station":71,"Start_Station_Name":"64 SONORA-AMSTERDAM","Start_Station_Lat":19.412877,"Start_Station_Lon":-99.166986,"Start_Colonia":"Hipodromo","End_Station_Name":"71 AMSTERDAM-MICHOACAN","End_Station_Lat":19.411423,"End_Station_Lon":-99.171351,"End_Colonia":"Hipodromo"},"194":{"Total_Rides":6,"Start_Station":27,"End_Station":30,"Start_Station_Name":"27 REFORMA-HAVRE","Start_Station_Lat":19.429115,"Start_Station_Lon":-99.162614,"Start_Colonia":"Juarez","End_Station_Name":"30 HAMBURGO-GENOVA","End_Station_Lat":19.426442,"End_Station_Lon":-99.164323,"End_Colonia":"Juarez"},"195":{"Total_Rides":6,"Start_Station":27,"End_Station":38,"Start_Station_Name":"27 REFORMA-HAVRE","Start_Station_Lat":19.429115,"Start_Station_Lon":-99.162614,"Start_Colonia":"Juarez","End_Station_Name":"38 COZUMEL-PUEBLA","End_Station_Lat":19.420801,"End_Station_Lon":-99.171407,"End_Colonia":"Roma Norte"},"196":{"Total_Rides":6,"Start_Station":64,"End_Station":53,"Start_Station_Name":"64 SONORA-AMSTERDAM","Start_Station_Lat":19.412877,"Start_Station_Lon":-99.166986,"Start_Colonia":"Hipodromo","End_Station_Name":"53 FERNANDO MONTES DE OCA-TULA","End_Station_Lat":19.414773,"End_Station_Lon":-99.178433,"End_Colonia":"Condesa"},"197":{"Total_Rides":6,"Start_Station":84,"End_Station":74,"Start_Station_Name":"84 CHILPANCINGO-TLAXCALA","Start_Station_Lat":19.40702,"Start_Station_Lon":-99.169587,"Start_Colonia":"Hipodromo","End_Station_Name":"74 NUEVO LEON-OZULAMA","End_Station_Lat":19.410343,"End_Station_Lon":-99.172831,"End_Colonia":"Hipodromo"},"198":{"Total_Rides":6,"Start_Station":49,"End_Station":47,"Start_Station_Name":"49 MAZATLAN-JUAN DE LA BARRERA","Start_Station_Lat":19.416712,"Start_Station_Lon":-99.175704,"Start_Colonia":"Condesa","End_Station_Name":"47 GLORIETA CIBELES-OAXACA","End_Station_Lat":19.419515,"End_Station_Lon":-99.166299,"End_Colonia":"Roma Norte"},"199":{"Total_Rides":6,"Start_Station":50,"End_Station":50,"Start_Station_Name":"50 CUERNAVACA-VERACRUZ","Start_Station_Lat":19.416938,"Start_Station_Lon":-99.173648,"Start_Colonia":"Condesa","End_Station_Name":"50 CUERNAVACA-VERACRUZ","End_Station_Lat":19.416938,"End_Station_Lon":-99.173648,"End_Colonia":"Condesa"},"200":{"Total_Rides":6,"Start_Station":53,"End_Station":57,"Start_Station_Name":"53 FERNANDO MONTES DE OCA-TULA","Start_Station_Lat":19.414773,"Start_Station_Lon":-99.178433,"Start_Colonia":"Condesa","End_Station_Name":"57 CUERNAVACA-JUAN ESCUTIA","End_Station_Lat":19.414903,"End_Station_Lon":-99.17495,"End_Colonia":"Condesa"},"201":{"Total_Rides":6,"Start_Station":47,"End_Station":76,"Start_Station_Name":"47 GLORIETA CIBELES-OAXACA","Start_Station_Lat":19.419515,"Start_Station_Lon":-99.166299,"Start_Colonia":"Roma Norte","End_Station_Name":"76 CHILPANCINGO-CAMPECHE","End_Station_Lat":19.408736,"End_Station_Lon":-99.169913,"End_Colonia":"Hipodromo"},"202":{"Total_Rides":6,"Start_Station":16,"End_Station":27,"Start_Station_Name":"16 REFORMA-R\u00cdO TIBER","Start_Station_Lat":19.427226,"Start_Station_Lon":-99.168242,"Start_Colonia":"Cuauhtemoc","End_Station_Name":"27 REFORMA-HAVRE","End_Station_Lat":19.429115,"End_Station_Lon":-99.162614,"End_Colonia":"Juarez"},"203":{"Total_Rides":6,"Start_Station":71,"End_Station":80,"Start_Station_Name":"71 AMSTERDAM-MICHOACAN","Start_Station_Lat":19.411423,"Start_Station_Lon":-99.171351,"Start_Colonia":"Hipodromo","End_Station_Name":"80 NUEVO LEON-AGUASCALIENTES","End_Station_Lat":19.407307,"End_Station_Lon":-99.172118,"End_Colonia":"Hipodromo"},"204":{"Total_Rides":6,"Start_Station":22,"End_Station":27,"Start_Station_Name":"22 REFORMA-MANCHESTER","Start_Station_Lat":19.424375,"Start_Station_Lon":-99.172575,"Start_Colonia":"Juarez","End_Station_Name":"27 REFORMA-HAVRE","End_Station_Lat":19.429115,"End_Station_Lon":-99.162614,"End_Colonia":"Juarez"},"205":{"Total_Rides":6,"Start_Station":77,"End_Station":75,"Start_Station_Name":"77 CHOAPAN-TAMAULIPAS","Start_Station_Lat":19.406765,"Start_Station_Lon":-99.178321,"Start_Colonia":"Hipodromo","End_Station_Name":"75 ALFONSO REYES-ATLIXCO","End_Station_Lat":19.408722,"End_Station_Lon":-99.17669,"End_Colonia":"Hipodromo Condesa"},"206":{"Total_Rides":6,"Start_Station":51,"End_Station":64,"Start_Station_Name":"51 COLIMA-OAXACA","Start_Station_Lat":19.417995,"Start_Station_Lon":-99.168248,"Start_Colonia":"Roma Norte","End_Station_Name":"64 SONORA-AMSTERDAM","End_Station_Lat":19.412877,"End_Station_Lon":-99.166986,"End_Colonia":"Hipodromo"},"207":{"Total_Rides":6,"Start_Station":2,"End_Station":7,"Start_Station_Name":"2 RIO GUADALQUIVIR-RIO BALSAS","Start_Station_Lat":19.431386,"Start_Station_Lon":-99.171695,"Start_Colonia":"Cuauhtemoc","End_Station_Name":"7 RIO ELBA-RIO LERMA","End_Station_Lat":19.425468,"End_Station_Lon":-99.175166,"End_Colonia":"Cuauhtemoc"},"208":{"Total_Rides":6,"Start_Station":16,"End_Station":1,"Start_Station_Name":"16 REFORMA-R\u00cdO TIBER","Start_Station_Lat":19.427226,"Start_Station_Lon":-99.168242,"Start_Colonia":"Cuauhtemoc","End_Station_Name":"1 RIO SENA-RIO BALSAS","End_Station_Lat":19.4335714,"End_Station_Lon":-99.1678091,"End_Colonia":"Cuauhtemoc"},"209":{"Total_Rides":6,"Start_Station":13,"End_Station":31,"Start_Station_Name":"13 REFORMA-RIO MISSISSIPPI","Start_Station_Lat":19.42502,"Start_Station_Lon":-99.17231,"Start_Colonia":"Cuauhtemoc","End_Station_Name":"31 HAMBURGO-INSURGENTES","End_Station_Lat":19.427838,"End_Station_Lon":-99.161193,"End_Colonia":"Juarez"},"210":{"Total_Rides":6,"Start_Station":41,"End_Station":41,"Start_Station_Name":"41 REFORMA-AV. DE LA REPUBLICA","Start_Station_Lat":19.435637,"Start_Station_Lon":-99.150137,"Start_Colonia":"Tabacalera","End_Station_Name":"41 REFORMA-AV. DE LA REPUBLICA","End_Station_Lat":19.435637,"End_Station_Lon":-99.150137,"End_Colonia":"Tabacalera"},"211":{"Total_Rides":6,"Start_Station":1,"End_Station":16,"Start_Station_Name":"1 RIO SENA-RIO BALSAS","Start_Station_Lat":19.4335714,"Start_Station_Lon":-99.1678091,"Start_Colonia":"Cuauhtemoc","End_Station_Name":"16 REFORMA-R\u00cdO TIBER","End_Station_Lat":19.427226,"End_Station_Lon":-99.168242,"End_Colonia":"Cuauhtemoc"},"212":{"Total_Rides":6,"Start_Station":10,"End_Station":1,"Start_Station_Name":"10 REFORMA-RAMIREZ","Start_Station_Lat":19.433321,"Start_Station_Lon":-99.154752,"Start_Colonia":"Tabacalera","End_Station_Name":"1 RIO SENA-RIO BALSAS","End_Station_Lat":19.4335714,"End_Station_Lon":-99.1678091,"End_Colonia":"Cuauhtemoc"},"213":{"Total_Rides":6,"Start_Station":7,"End_Station":27,"Start_Station_Name":"7 RIO ELBA-RIO LERMA","Start_Station_Lat":19.425468,"Start_Station_Lon":-99.175166,"Start_Colonia":"Cuauhtemoc","End_Station_Name":"27 REFORMA-HAVRE","End_Station_Lat":19.429115,"End_Station_Lon":-99.162614,"End_Colonia":"Juarez"},"214":{"Total_Rides":6,"Start_Station":27,"End_Station":6,"Start_Station_Name":"27 REFORMA-HAVRE","Start_Station_Lat":19.429115,"Start_Station_Lon":-99.162614,"Start_Colonia":"Juarez","End_Station_Name":"6 RIO PANUCO-RIO SENA","End_Station_Lat":19.430922,"End_Station_Lon":-99.166959,"End_Colonia":"Cuauhtemoc"},"215":{"Total_Rides":6,"Start_Station":28,"End_Station":46,"Start_Station_Name":"28 TOLEDO-TOKIO","Start_Station_Lat":19.423542,"Start_Station_Lon":-99.172494,"Start_Colonia":"Juarez","End_Station_Name":"46 DURANGO-SALAMANCA","End_Station_Lat":19.419214,"End_Station_Lon":-99.169732,"End_Colonia":"Roma Norte"},"216":{"Total_Rides":6,"Start_Station":50,"End_Station":59,"Start_Station_Name":"50 CUERNAVACA-VERACRUZ","Start_Station_Lat":19.416938,"Start_Station_Lon":-99.173648,"Start_Colonia":"Condesa","End_Station_Name":"59 POPOCATEPETL-AMSTERDAM","End_Station_Lat":19.415121,"End_Station_Lon":-99.166661,"End_Colonia":"Hipodromo"},"217":{"Total_Rides":6,"Start_Station":25,"End_Station":34,"Start_Station_Name":"25 REFORMA-ESTOCOLMO","Start_Station_Lat":19.427317,"Start_Station_Lon":-99.166662,"Start_Colonia":"Juarez","End_Station_Name":"34 LIVERPOOL-GENOVA","End_Station_Lat":19.424725,"End_Station_Lon":-99.163331,"End_Colonia":"Juarez"},"218":{"Total_Rides":6,"Start_Station":38,"End_Station":64,"Start_Station_Name":"38 COZUMEL-PUEBLA","Start_Station_Lat":19.420801,"Start_Station_Lon":-99.171407,"Start_Colonia":"Roma Norte","End_Station_Name":"64 SONORA-AMSTERDAM","End_Station_Lat":19.412877,"End_Station_Lon":-99.166986,"End_Colonia":"Hipodromo"},"219":{"Total_Rides":6,"Start_Station":71,"End_Station":79,"Start_Station_Name":"71 AMSTERDAM-MICHOACAN","Start_Station_Lat":19.411423,"Start_Station_Lon":-99.171351,"Start_Colonia":"Hipodromo","End_Station_Name":"79 SALTILLO-ALFONSO REYES","End_Station_Lat":19.407534,"End_Station_Lon":-99.174427,"End_Colonia":"Hipodromo"},"220":{"Total_Rides":6,"Start_Station":23,"End_Station":20,"Start_Station_Name":"23 REFORMA-PRAGA","Start_Station_Lat":19.42517,"Start_Station_Lon":-99.17105,"Start_Colonia":"Juarez","End_Station_Name":"20 REFORMA-RIO TAMESIS","End_Station_Lat":19.430964,"End_Station_Lon":-99.160206,"End_Colonia":"Cuauhtemoc"},"221":{"Total_Rides":6,"Start_Station":68,"End_Station":77,"Start_Station_Name":"68 TAMAULIPAS-MICHOACAN","Start_Station_Lat":19.411556,"Start_Station_Lon":-99.17406,"Start_Colonia":"Condesa","End_Station_Name":"77 CHOAPAN-TAMAULIPAS","End_Station_Lat":19.406765,"End_Station_Lon":-99.178321,"End_Colonia":"Hipodromo"},"222":{"Total_Rides":6,"Start_Station":1,"End_Station":13,"Start_Station_Name":"1 RIO SENA-RIO BALSAS","Start_Station_Lat":19.4335714,"Start_Station_Lon":-99.1678091,"Start_Colonia":"Cuauhtemoc","End_Station_Name":"13 REFORMA-RIO MISSISSIPPI","End_Station_Lat":19.42502,"End_Station_Lon":-99.17231,"End_Colonia":"Cuauhtemoc"},"223":{"Total_Rides":6,"Start_Station":13,"End_Station":27,"Start_Station_Name":"13 REFORMA-RIO MISSISSIPPI","Start_Station_Lat":19.42502,"Start_Station_Lon":-99.17231,"Start_Colonia":"Cuauhtemoc","End_Station_Name":"27 REFORMA-HAVRE","End_Station_Lat":19.429115,"End_Station_Lon":-99.162614,"End_Colonia":"Juarez"},"224":{"Total_Rides":6,"Start_Station":61,"End_Station":70,"Start_Station_Name":"61 AVENIDA MEXICO-SONORA","Start_Station_Lat":19.413742,"Start_Station_Lon":-99.169525,"Start_Colonia":"Hipodromo","End_Station_Name":"70 PARQUE MEXICO-MICHOACAN","End_Station_Lat":19.411272,"End_Station_Lon":-99.169718,"End_Colonia":"Hipodromo"},"225":{"Total_Rides":6,"Start_Station":34,"End_Station":2,"Start_Station_Name":"34 LIVERPOOL-GENOVA","Start_Station_Lat":19.424725,"Start_Station_Lon":-99.163331,"Start_Colonia":"Juarez","End_Station_Name":"2 RIO GUADALQUIVIR-RIO BALSAS","End_Station_Lat":19.431386,"End_Station_Lon":-99.171695,"End_Colonia":"Cuauhtemoc"},"226":{"Total_Rides":6,"Start_Station":38,"End_Station":38,"Start_Station_Name":"38 COZUMEL-PUEBLA","Start_Station_Lat":19.420801,"Start_Station_Lon":-99.171407,"Start_Colonia":"Roma Norte","End_Station_Name":"38 COZUMEL-PUEBLA","End_Station_Lat":19.420801,"End_Station_Lon":-99.171407,"End_Colonia":"Roma Norte"},"227":{"Total_Rides":6,"Start_Station":85,"End_Station":30,"Start_Station_Name":"85 ROSAS MORENO-SULLIVAN","Start_Station_Lat":19.43425,"Start_Station_Lon":-99.162508,"Start_Colonia":"San Rafael","End_Station_Name":"30 HAMBURGO-GENOVA","End_Station_Lat":19.426442,"End_Station_Lon":-99.164323,"End_Colonia":"Juarez"},"228":{"Total_Rides":6,"Start_Station":38,"End_Station":45,"Start_Station_Name":"38 COZUMEL-PUEBLA","Start_Station_Lat":19.420801,"Start_Station_Lon":-99.171407,"Start_Colonia":"Roma Norte","End_Station_Name":"45 DURANGO-SONORA","End_Station_Lat":19.418649,"End_Station_Lon":-99.172127,"End_Colonia":"Roma Norte"},"229":{"Total_Rides":6,"Start_Station":2,"End_Station":1,"Start_Station_Name":"2 RIO GUADALQUIVIR-RIO BALSAS","Start_Station_Lat":19.431386,"Start_Station_Lon":-99.171695,"Start_Colonia":"Cuauhtemoc","End_Station_Name":"1 RIO SENA-RIO BALSAS","End_Station_Lat":19.4335714,"End_Station_Lon":-99.1678091,"End_Colonia":"Cuauhtemoc"},"230":{"Total_Rides":6,"Start_Station":20,"End_Station":1,"Start_Station_Name":"20 REFORMA-RIO TAMESIS","Start_Station_Lat":19.430964,"Start_Station_Lon":-99.160206,"Start_Colonia":"Cuauhtemoc","End_Station_Name":"1 RIO SENA-RIO BALSAS","End_Station_Lat":19.4335714,"End_Station_Lon":-99.1678091,"End_Colonia":"Cuauhtemoc"},"231":{"Total_Rides":6,"Start_Station":56,"End_Station":13,"Start_Station_Name":"56 ALVARO OBREGON-MEDELLIN","Start_Station_Lat":19.416959,"Start_Station_Lon":-99.165702,"Start_Colonia":"Roma Norte","End_Station_Name":"13 REFORMA-RIO MISSISSIPPI","End_Station_Lat":19.42502,"End_Station_Lon":-99.17231,"End_Colonia":"Cuauhtemoc"},"232":{"Total_Rides":6,"Start_Station":71,"End_Station":71,"Start_Station_Name":"71 AMSTERDAM-MICHOACAN","Start_Station_Lat":19.411423,"Start_Station_Lon":-99.171351,"Start_Colonia":"Hipodromo","End_Station_Name":"71 AMSTERDAM-MICHOACAN","End_Station_Lat":19.411423,"End_Station_Lon":-99.171351,"End_Colonia":"Hipodromo"},"233":{"Total_Rides":6,"Start_Station":41,"End_Station":51,"Start_Station_Name":"41 REFORMA-AV. DE LA REPUBLICA","Start_Station_Lat":19.435637,"Start_Station_Lon":-99.150137,"Start_Colonia":"Tabacalera","End_Station_Name":"51 COLIMA-OAXACA","End_Station_Lat":19.417995,"End_Station_Lon":-99.168248,"End_Colonia":"Roma Norte"},"234":{"Total_Rides":6,"Start_Station":36,"End_Station":67,"Start_Station_Name":"36 PUEBLA-VERACRUZ","Start_Station_Lat":19.419725,"Start_Station_Lon":-99.175778,"Start_Colonia":"Piedad Narvarte","End_Station_Name":"67 VICENTE SUAREZ-MICHOACAN","End_Station_Lat":19.411797,"End_Station_Lon":-99.17588,"End_Colonia":"Condesa"},"235":{"Total_Rides":6,"Start_Station":27,"End_Station":85,"Start_Station_Name":"27 REFORMA-HAVRE","Start_Station_Lat":19.429115,"Start_Station_Lon":-99.162614,"Start_Colonia":"Juarez","End_Station_Name":"85 ROSAS MORENO-SULLIVAN","End_Station_Lat":19.43425,"End_Station_Lon":-99.162508,"End_Colonia":"San Rafael"},"236":{"Total_Rides":6,"Start_Station":1,"End_Station":10,"Start_Station_Name":"1 RIO SENA-RIO BALSAS","Start_Station_Lat":19.4335714,"Start_Station_Lon":-99.1678091,"Start_Colonia":"Cuauhtemoc","End_Station_Name":"10 REFORMA-RAMIREZ","End_Station_Lat":19.433321,"End_Station_Lon":-99.154752,"End_Colonia":"Tabacalera"},"237":{"Total_Rides":6,"Start_Station":64,"End_Station":50,"Start_Station_Name":"64 SONORA-AMSTERDAM","Start_Station_Lat":19.412877,"Start_Station_Lon":-99.166986,"Start_Colonia":"Hipodromo","End_Station_Name":"50 CUERNAVACA-VERACRUZ","End_Station_Lat":19.416938,"End_Station_Lon":-99.173648,"End_Colonia":"Condesa"},"238":{"Total_Rides":6,"Start_Station":34,"End_Station":27,"Start_Station_Name":"34 LIVERPOOL-GENOVA","Start_Station_Lat":19.424725,"Start_Station_Lon":-99.163331,"Start_Colonia":"Juarez","End_Station_Name":"27 REFORMA-HAVRE","End_Station_Lat":19.429115,"End_Station_Lon":-99.162614,"End_Colonia":"Juarez"},"239":{"Total_Rides":6,"Start_Station":36,"End_Station":64,"Start_Station_Name":"36 PUEBLA-VERACRUZ","Start_Station_Lat":19.419725,"Start_Station_Lon":-99.175778,"Start_Colonia":"Piedad Narvarte","End_Station_Name":"64 SONORA-AMSTERDAM","End_Station_Lat":19.412877,"End_Station_Lon":-99.166986,"End_Colonia":"Hipodromo"},"240":{"Total_Rides":6,"Start_Station":36,"End_Station":60,"Start_Station_Name":"36 PUEBLA-VERACRUZ","Start_Station_Lat":19.419725,"Start_Station_Lon":-99.175778,"Start_Colonia":"Piedad Narvarte","End_Station_Name":"60 MAZATLAN-FERNANDO MONTES DE OCA","End_Station_Lat":19.414191,"End_Station_Lon":-99.177123,"End_Colonia":"Condesa"},"241":{"Total_Rides":6,"Start_Station":34,"End_Station":6,"Start_Station_Name":"34 LIVERPOOL-GENOVA","Start_Station_Lat":19.424725,"Start_Station_Lon":-99.163331,"Start_Colonia":"Juarez","End_Station_Name":"6 RIO PANUCO-RIO SENA","End_Station_Lat":19.430922,"End_Station_Lon":-99.166959,"End_Colonia":"Cuauhtemoc"},"242":{"Total_Rides":6,"Start_Station":36,"End_Station":59,"Start_Station_Name":"36 PUEBLA-VERACRUZ","Start_Station_Lat":19.419725,"Start_Station_Lon":-99.175778,"Start_Colonia":"Piedad Narvarte","End_Station_Name":"59 POPOCATEPETL-AMSTERDAM","End_Station_Lat":19.415121,"End_Station_Lon":-99.166661,"End_Colonia":"Hipodromo"},"243":{"Total_Rides":6,"Start_Station":77,"End_Station":62,"Start_Station_Name":"77 CHOAPAN-TAMAULIPAS","Start_Station_Lat":19.406765,"Start_Station_Lon":-99.178321,"Start_Colonia":"Hipodromo","End_Station_Name":"62 FERNANDO MONTES DE OCA-AMATLAN","End_Station_Lat":19.413322,"End_Station_Lon":-99.175202,"End_Colonia":"Condesa"},"244":{"Total_Rides":6,"Start_Station":57,"End_Station":57,"Start_Station_Name":"57 CUERNAVACA-JUAN ESCUTIA","Start_Station_Lat":19.414903,"Start_Station_Lon":-99.17495,"Start_Colonia":"Condesa","End_Station_Name":"57 CUERNAVACA-JUAN ESCUTIA","End_Station_Lat":19.414903,"End_Station_Lon":-99.17495,"End_Colonia":"Condesa"},"245":{"Total_Rides":6,"Start_Station":64,"End_Station":76,"Start_Station_Name":"64 SONORA-AMSTERDAM","Start_Station_Lat":19.412877,"Start_Station_Lon":-99.166986,"Start_Colonia":"Hipodromo","End_Station_Name":"76 CHILPANCINGO-CAMPECHE","End_Station_Lat":19.408736,"End_Station_Lon":-99.169913,"End_Colonia":"Hipodromo"},"246":{"Total_Rides":6,"Start_Station":2,"End_Station":25,"Start_Station_Name":"2 RIO GUADALQUIVIR-RIO BALSAS","Start_Station_Lat":19.431386,"Start_Station_Lon":-99.171695,"Start_Colonia":"Cuauhtemoc","End_Station_Name":"25 REFORMA-ESTOCOLMO","End_Station_Lat":19.427317,"End_Station_Lon":-99.166662,"End_Colonia":"Juarez"},"247":{"Total_Rides":6,"Start_Station":46,"End_Station":70,"Start_Station_Name":"46 DURANGO-SALAMANCA","Start_Station_Lat":19.419214,"Start_Station_Lon":-99.169732,"Start_Colonia":"Roma Norte","End_Station_Name":"70 PARQUE MEXICO-MICHOACAN","End_Station_Lat":19.411272,"End_Station_Lon":-99.169718,"End_Colonia":"Hipodromo"},"248":{"Total_Rides":6,"Start_Station":12,"End_Station":34,"Start_Station_Name":"12 RIO LERMA-VILLALONGIN","Start_Station_Lat":19.432313,"Start_Station_Lon":-99.161597,"Start_Colonia":"Cuauhtemoc","End_Station_Name":"34 LIVERPOOL-GENOVA","End_Station_Lat":19.424725,"End_Station_Lon":-99.163331,"End_Colonia":"Juarez"},"249":{"Total_Rides":6,"Start_Station":86,"End_Station":85,"Start_Station_Name":"86 SULLIVAN-INSURGENTES","Start_Station_Lat":19.432378,"Start_Station_Lon":-99.159077,"Start_Colonia":"San Rafael","End_Station_Name":"85 ROSAS MORENO-SULLIVAN","End_Station_Lat":19.43425,"End_Station_Lon":-99.162508,"End_Colonia":"San Rafael"},"250":{"Total_Rides":6,"Start_Station":27,"End_Station":15,"Start_Station_Name":"27 REFORMA-HAVRE","Start_Station_Lat":19.429115,"Start_Station_Lon":-99.162614,"Start_Colonia":"Juarez","End_Station_Name":"15 REFORMA-RIO MISSISSIPPI","End_Station_Lat":19.425477,"End_Station_Lon":-99.171567,"End_Colonia":"Cuauhtemoc"},"251":{"Total_Rides":5,"Start_Station":85,"End_Station":34,"Start_Station_Name":"85 ROSAS MORENO-SULLIVAN","Start_Station_Lat":19.43425,"Start_Station_Lon":-99.162508,"Start_Colonia":"San Rafael","End_Station_Name":"34 LIVERPOOL-GENOVA","End_Station_Lat":19.424725,"End_Station_Lon":-99.163331,"End_Colonia":"Juarez"},"252":{"Total_Rides":5,"Start_Station":72,"End_Station":36,"Start_Station_Name":"72 MAZATLAN-ALFONSO REYES","Start_Station_Lat":19.409893,"Start_Station_Lon":-99.179544,"Start_Colonia":"Hipodromo Condesa","End_Station_Name":"36 PUEBLA-VERACRUZ","End_Station_Lat":19.419725,"End_Station_Lon":-99.175778,"End_Colonia":"Piedad Narvarte"},"253":{"Total_Rides":5,"Start_Station":27,"End_Station":4,"Start_Station_Name":"27 REFORMA-HAVRE","Start_Station_Lat":19.429115,"Start_Station_Lon":-99.162614,"Start_Colonia":"Juarez","End_Station_Name":"4 RIO NILO-RIO PANUCO","End_Station_Lat":19.428309,"End_Station_Lon":-99.171713,"End_Colonia":"Cuauhtemoc"},"254":{"Total_Rides":5,"Start_Station":72,"End_Station":83,"Start_Station_Name":"72 MAZATLAN-ALFONSO REYES","Start_Station_Lat":19.409893,"Start_Station_Lon":-99.179544,"Start_Colonia":"Hipodromo Condesa","End_Station_Name":"83 NUEVO LEON-ALFONSO REYES","End_Station_Lat":19.406296,"End_Station_Lon":-99.172117,"End_Colonia":"Hipodromo"},"255":{"Total_Rides":5,"Start_Station":1,"End_Station":12,"Start_Station_Name":"1 RIO SENA-RIO BALSAS","Start_Station_Lat":19.4335714,"Start_Station_Lon":-99.1678091,"Start_Colonia":"Cuauhtemoc","End_Station_Name":"12 RIO LERMA-VILLALONGIN","End_Station_Lat":19.432313,"End_Station_Lon":-99.161597,"End_Colonia":"Cuauhtemoc"},"256":{"Total_Rides":5,"Start_Station":77,"End_Station":53,"Start_Station_Name":"77 CHOAPAN-TAMAULIPAS","Start_Station_Lat":19.406765,"Start_Station_Lon":-99.178321,"Start_Colonia":"Hipodromo","End_Station_Name":"53 FERNANDO MONTES DE OCA-TULA","End_Station_Lat":19.414773,"End_Station_Lon":-99.178433,"End_Colonia":"Condesa"},"257":{"Total_Rides":5,"Start_Station":25,"End_Station":31,"Start_Station_Name":"25 REFORMA-ESTOCOLMO","Start_Station_Lat":19.427317,"Start_Station_Lon":-99.166662,"Start_Colonia":"Juarez","End_Station_Name":"31 HAMBURGO-INSURGENTES","End_Station_Lat":19.427838,"End_Station_Lon":-99.161193,"End_Colonia":"Juarez"},"258":{"Total_Rides":5,"Start_Station":49,"End_Station":69,"Start_Station_Name":"49 MAZATLAN-JUAN DE LA BARRERA","Start_Station_Lat":19.416712,"Start_Station_Lon":-99.175704,"Start_Colonia":"Condesa","End_Station_Name":"69 MICHOACAN-AMSTERDAM","End_Station_Lat":19.410733,"End_Station_Lon":-99.168111,"End_Colonia":"Hipodromo"},"259":{"Total_Rides":5,"Start_Station":64,"End_Station":74,"Start_Station_Name":"64 SONORA-AMSTERDAM","Start_Station_Lat":19.412877,"Start_Station_Lon":-99.166986,"Start_Colonia":"Hipodromo","End_Station_Name":"74 NUEVO LEON-OZULAMA","End_Station_Lat":19.410343,"End_Station_Lon":-99.172831,"End_Colonia":"Hipodromo"},"260":{"Total_Rides":5,"Start_Station":68,"End_Station":76,"Start_Station_Name":"68 TAMAULIPAS-MICHOACAN","Start_Station_Lat":19.411556,"Start_Station_Lon":-99.17406,"Start_Colonia":"Condesa","End_Station_Name":"76 CHILPANCINGO-CAMPECHE","End_Station_Lat":19.408736,"End_Station_Lon":-99.169913,"End_Colonia":"Hipodromo"},"261":{"Total_Rides":5,"Start_Station":76,"End_Station":70,"Start_Station_Name":"76 CHILPANCINGO-CAMPECHE","Start_Station_Lat":19.408736,"Start_Station_Lon":-99.169913,"Start_Colonia":"Hipodromo","End_Station_Name":"70 PARQUE MEXICO-MICHOACAN","End_Station_Lat":19.411272,"End_Station_Lon":-99.169718,"End_Colonia":"Hipodromo"},"262":{"Total_Rides":5,"Start_Station":80,"End_Station":70,"Start_Station_Name":"80 NUEVO LEON-AGUASCALIENTES","Start_Station_Lat":19.407307,"Start_Station_Lon":-99.172118,"Start_Colonia":"Hipodromo","End_Station_Name":"70 PARQUE MEXICO-MICHOACAN","End_Station_Lat":19.411272,"End_Station_Lon":-99.169718,"End_Colonia":"Hipodromo"},"263":{"Total_Rides":5,"Start_Station":6,"End_Station":85,"Start_Station_Name":"6 RIO PANUCO-RIO SENA","Start_Station_Lat":19.430922,"Start_Station_Lon":-99.166959,"Start_Colonia":"Cuauhtemoc","End_Station_Name":"85 ROSAS MORENO-SULLIVAN","End_Station_Lat":19.43425,"End_Station_Lon":-99.162508,"End_Colonia":"San Rafael"},"264":{"Total_Rides":5,"Start_Station":20,"End_Station":16,"Start_Station_Name":"20 REFORMA-RIO TAMESIS","Start_Station_Lat":19.430964,"Start_Station_Lon":-99.160206,"Start_Colonia":"Cuauhtemoc","End_Station_Name":"16 REFORMA-R\u00cdO TIBER","End_Station_Lat":19.427226,"End_Station_Lon":-99.168242,"End_Colonia":"Cuauhtemoc"},"265":{"Total_Rides":5,"Start_Station":53,"End_Station":68,"Start_Station_Name":"53 FERNANDO MONTES DE OCA-TULA","Start_Station_Lat":19.414773,"Start_Station_Lon":-99.178433,"Start_Colonia":"Condesa","End_Station_Name":"68 TAMAULIPAS-MICHOACAN","End_Station_Lat":19.411556,"End_Station_Lon":-99.17406,"End_Colonia":"Condesa"},"266":{"Total_Rides":5,"Start_Station":28,"End_Station":7,"Start_Station_Name":"28 TOLEDO-TOKIO","Start_Station_Lat":19.423542,"Start_Station_Lon":-99.172494,"Start_Colonia":"Juarez","End_Station_Name":"7 RIO ELBA-RIO LERMA","End_Station_Lat":19.425468,"End_Station_Lon":-99.175166,"End_Colonia":"Cuauhtemoc"},"267":{"Total_Rides":5,"Start_Station":63,"End_Station":40,"Start_Station_Name":"63 NUEVO LEON- LAREDO","Start_Station_Lat":19.413681,"Start_Station_Lon":-99.171531,"Start_Colonia":"Condesa","End_Station_Name":"40 OAXACA-PUEBLA","End_Station_Lat":19.42223,"End_Station_Lon":-99.164297,"End_Colonia":"Roma Norte"},"268":{"Total_Rides":5,"Start_Station":74,"End_Station":36,"Start_Station_Name":"74 NUEVO LEON-OZULAMA","Start_Station_Lat":19.410343,"Start_Station_Lon":-99.172831,"Start_Colonia":"Hipodromo","End_Station_Name":"36 PUEBLA-VERACRUZ","End_Station_Lat":19.419725,"End_Station_Lon":-99.175778,"End_Colonia":"Piedad Narvarte"},"269":{"Total_Rides":5,"Start_Station":79,"End_Station":59,"Start_Station_Name":"79 SALTILLO-ALFONSO REYES","Start_Station_Lat":19.407534,"Start_Station_Lon":-99.174427,"Start_Colonia":"Hipodromo","End_Station_Name":"59 POPOCATEPETL-AMSTERDAM","End_Station_Lat":19.415121,"End_Station_Lon":-99.166661,"End_Colonia":"Hipodromo"},"270":{"Total_Rides":5,"Start_Station":73,"End_Station":54,"Start_Station_Name":"73 CAMPECHE-TAMAULIPAS","Start_Station_Lat":19.410245,"Start_Station_Lon":-99.175612,"Start_Colonia":"Hipodromo Condesa","End_Station_Name":"54 PARQUE ESPA\u00d1A-SONORA","End_Station_Lat":19.416215,"End_Station_Lon":-99.170825,"End_Colonia":"Condesa"},"271":{"Total_Rides":5,"Start_Station":36,"End_Station":72,"Start_Station_Name":"36 PUEBLA-VERACRUZ","Start_Station_Lat":19.419725,"Start_Station_Lon":-99.175778,"Start_Colonia":"Piedad Narvarte","End_Station_Name":"72 MAZATLAN-ALFONSO REYES","End_Station_Lat":19.409893,"End_Station_Lon":-99.179544,"End_Colonia":"Hipodromo Condesa"},"272":{"Total_Rides":5,"Start_Station":58,"End_Station":45,"Start_Station_Name":"58 PARQUE ESPA\u00d1A-JUAN DE LA BARRERA","Start_Station_Lat":19.41568,"Start_Station_Lon":-99.171793,"Start_Colonia":"Condesa","End_Station_Name":"45 DURANGO-SONORA","End_Station_Lat":19.418649,"End_Station_Lon":-99.172127,"End_Colonia":"Roma Norte"},"273":{"Total_Rides":5,"Start_Station":28,"End_Station":27,"Start_Station_Name":"28 TOLEDO-TOKIO","Start_Station_Lat":19.423542,"Start_Station_Lon":-99.172494,"Start_Colonia":"Juarez","End_Station_Name":"27 REFORMA-HAVRE","End_Station_Lat":19.429115,"End_Station_Lon":-99.162614,"End_Colonia":"Juarez"},"274":{"Total_Rides":5,"Start_Station":13,"End_Station":16,"Start_Station_Name":"13 REFORMA-RIO MISSISSIPPI","Start_Station_Lat":19.42502,"Start_Station_Lon":-99.17231,"Start_Colonia":"Cuauhtemoc","End_Station_Name":"16 REFORMA-R\u00cdO TIBER","End_Station_Lat":19.427226,"End_Station_Lon":-99.168242,"End_Colonia":"Cuauhtemoc"},"275":{"Total_Rides":5,"Start_Station":8,"End_Station":85,"Start_Station_Name":"8 REFORMA-GENERAL PRIM","Start_Station_Lat":19.431141,"Start_Station_Lon":-99.158317,"Start_Colonia":"Juarez","End_Station_Name":"85 ROSAS MORENO-SULLIVAN","End_Station_Lat":19.43425,"End_Station_Lon":-99.162508,"End_Colonia":"San Rafael"},"276":{"Total_Rides":5,"Start_Station":26,"End_Station":28,"Start_Station_Name":"26 REFORMA-VERSALLES","Start_Station_Lat":19.432685,"Start_Station_Lon":-99.154726,"Start_Colonia":"Juarez","End_Station_Name":"28 TOLEDO-TOKIO","End_Station_Lat":19.423542,"End_Station_Lon":-99.172494,"End_Colonia":"Juarez"},"277":{"Total_Rides":5,"Start_Station":66,"End_Station":49,"Start_Station_Name":"66 MAZATLAN-FRANCISCO MARQUEZ","Start_Station_Lat":19.411402,"Start_Station_Lon":-99.178666,"Start_Colonia":"Hipodromo Condesa","End_Station_Name":"49 MAZATLAN-JUAN DE LA BARRERA","End_Station_Lat":19.416712,"End_Station_Lon":-99.175704,"End_Colonia":"Condesa"},"278":{"Total_Rides":5,"Start_Station":12,"End_Station":1,"Start_Station_Name":"12 RIO LERMA-VILLALONGIN","Start_Station_Lat":19.432313,"Start_Station_Lon":-99.161597,"Start_Colonia":"Cuauhtemoc","End_Station_Name":"1 RIO SENA-RIO BALSAS","End_Station_Lat":19.4335714,"End_Station_Lon":-99.1678091,"End_Colonia":"Cuauhtemoc"},"279":{"Total_Rides":5,"Start_Station":59,"End_Station":74,"Start_Station_Name":"59 POPOCATEPETL-AMSTERDAM","Start_Station_Lat":19.415121,"Start_Station_Lon":-99.166661,"Start_Colonia":"Hipodromo","End_Station_Name":"74 NUEVO LEON-OZULAMA","End_Station_Lat":19.410343,"End_Station_Lon":-99.172831,"End_Colonia":"Hipodromo"},"280":{"Total_Rides":5,"Start_Station":64,"End_Station":70,"Start_Station_Name":"64 SONORA-AMSTERDAM","Start_Station_Lat":19.412877,"Start_Station_Lon":-99.166986,"Start_Colonia":"Hipodromo","End_Station_Name":"70 PARQUE MEXICO-MICHOACAN","End_Station_Lat":19.411272,"End_Station_Lon":-99.169718,"End_Colonia":"Hipodromo"},"281":{"Total_Rides":5,"Start_Station":79,"End_Station":36,"Start_Station_Name":"79 SALTILLO-ALFONSO REYES","Start_Station_Lat":19.407534,"Start_Station_Lon":-99.174427,"Start_Colonia":"Hipodromo","End_Station_Name":"36 PUEBLA-VERACRUZ","End_Station_Lat":19.419725,"End_Station_Lon":-99.175778,"End_Colonia":"Piedad Narvarte"},"282":{"Total_Rides":5,"Start_Station":1,"End_Station":85,"Start_Station_Name":"1 RIO SENA-RIO BALSAS","Start_Station_Lat":19.4335714,"Start_Station_Lon":-99.1678091,"Start_Colonia":"Cuauhtemoc","End_Station_Name":"85 ROSAS MORENO-SULLIVAN","End_Station_Lat":19.43425,"End_Station_Lon":-99.162508,"End_Colonia":"San Rafael"},"283":{"Total_Rides":5,"Start_Station":84,"End_Station":69,"Start_Station_Name":"84 CHILPANCINGO-TLAXCALA","Start_Station_Lat":19.40702,"Start_Station_Lon":-99.169587,"Start_Colonia":"Hipodromo","End_Station_Name":"69 MICHOACAN-AMSTERDAM","End_Station_Lat":19.410733,"End_Station_Lon":-99.168111,"End_Colonia":"Hipodromo"},"284":{"Total_Rides":5,"Start_Station":61,"End_Station":69,"Start_Station_Name":"61 AVENIDA MEXICO-SONORA","Start_Station_Lat":19.413742,"Start_Station_Lon":-99.169525,"Start_Colonia":"Hipodromo","End_Station_Name":"69 MICHOACAN-AMSTERDAM","End_Station_Lat":19.410733,"End_Station_Lon":-99.168111,"End_Colonia":"Hipodromo"},"285":{"Total_Rides":5,"Start_Station":34,"End_Station":16,"Start_Station_Name":"34 LIVERPOOL-GENOVA","Start_Station_Lat":19.424725,"Start_Station_Lon":-99.163331,"Start_Colonia":"Juarez","End_Station_Name":"16 REFORMA-R\u00cdO TIBER","End_Station_Lat":19.427226,"End_Station_Lon":-99.168242,"End_Colonia":"Cuauhtemoc"},"286":{"Total_Rides":5,"Start_Station":59,"End_Station":59,"Start_Station_Name":"59 POPOCATEPETL-AMSTERDAM","Start_Station_Lat":19.415121,"Start_Station_Lon":-99.166661,"Start_Colonia":"Hipodromo","End_Station_Name":"59 POPOCATEPETL-AMSTERDAM","End_Station_Lat":19.415121,"End_Station_Lon":-99.166661,"End_Colonia":"Hipodromo"},"287":{"Total_Rides":5,"Start_Station":85,"End_Station":7,"Start_Station_Name":"85 ROSAS MORENO-SULLIVAN","Start_Station_Lat":19.43425,"Start_Station_Lon":-99.162508,"Start_Colonia":"San Rafael","End_Station_Name":"7 RIO ELBA-RIO LERMA","End_Station_Lat":19.425468,"End_Station_Lon":-99.175166,"End_Colonia":"Cuauhtemoc"},"288":{"Total_Rides":5,"Start_Station":1,"End_Station":5,"Start_Station_Name":"1 RIO SENA-RIO BALSAS","Start_Station_Lat":19.4335714,"Start_Station_Lon":-99.1678091,"Start_Colonia":"Cuauhtemoc","End_Station_Name":"5 RIO PANUCO-RIO TIBER","End_Station_Lat":19.42972,"End_Station_Lon":-99.169363,"End_Colonia":"Cuauhtemoc"},"289":{"Total_Rides":5,"Start_Station":45,"End_Station":46,"Start_Station_Name":"45 DURANGO-SONORA","Start_Station_Lat":19.418649,"Start_Station_Lon":-99.172127,"Start_Colonia":"Roma Norte","End_Station_Name":"46 DURANGO-SALAMANCA","End_Station_Lat":19.419214,"End_Station_Lon":-99.169732,"End_Colonia":"Roma Norte"},"290":{"Total_Rides":5,"Start_Station":74,"End_Station":59,"Start_Station_Name":"74 NUEVO LEON-OZULAMA","Start_Station_Lat":19.410343,"Start_Station_Lon":-99.172831,"Start_Colonia":"Hipodromo","End_Station_Name":"59 POPOCATEPETL-AMSTERDAM","End_Station_Lat":19.415121,"End_Station_Lon":-99.166661,"End_Colonia":"Hipodromo"},"291":{"Total_Rides":5,"Start_Station":13,"End_Station":17,"Start_Station_Name":"13 REFORMA-RIO MISSISSIPPI","Start_Station_Lat":19.42502,"Start_Station_Lon":-99.17231,"Start_Colonia":"Cuauhtemoc","End_Station_Name":"17 REFORMA-RIO TIBER","End_Station_Lat":19.427501,"End_Station_Lon":-99.167125,"End_Colonia":"Cuauhtemoc"},"292":{"Total_Rides":5,"Start_Station":26,"End_Station":85,"Start_Station_Name":"26 REFORMA-VERSALLES","Start_Station_Lat":19.432685,"Start_Station_Lon":-99.154726,"Start_Colonia":"Juarez","End_Station_Name":"85 ROSAS MORENO-SULLIVAN","End_Station_Lat":19.43425,"End_Station_Lon":-99.162508,"End_Colonia":"San Rafael"},"293":{"Total_Rides":5,"Start_Station":35,"End_Station":35,"Start_Station_Name":"35 LIVERPOOL-GENOVA","Start_Station_Lat":19.424674,"Start_Station_Lon":-99.163292,"Start_Colonia":"Juarez","End_Station_Name":"35 LIVERPOOL-GENOVA","End_Station_Lat":19.424674,"End_Station_Lon":-99.163292,"End_Colonia":"Juarez"},"294":{"Total_Rides":5,"Start_Station":30,"End_Station":85,"Start_Station_Name":"30 HAMBURGO-GENOVA","Start_Station_Lat":19.426442,"Start_Station_Lon":-99.164323,"Start_Colonia":"Juarez","End_Station_Name":"85 ROSAS MORENO-SULLIVAN","End_Station_Lat":19.43425,"End_Station_Lon":-99.162508,"End_Colonia":"San Rafael"},"295":{"Total_Rides":5,"Start_Station":1,"End_Station":11,"Start_Station_Name":"1 RIO SENA-RIO BALSAS","Start_Station_Lat":19.4335714,"Start_Station_Lon":-99.1678091,"Start_Colonia":"Cuauhtemoc","End_Station_Name":"11 RIO AMAZONAS-RIO LERMA","End_Station_Lat":19.430992,"End_Station_Lon":-99.163593,"End_Colonia":"Cuauhtemoc"},"296":{"Total_Rides":5,"Start_Station":49,"End_Station":72,"Start_Station_Name":"49 MAZATLAN-JUAN DE LA BARRERA","Start_Station_Lat":19.416712,"Start_Station_Lon":-99.175704,"Start_Colonia":"Condesa","End_Station_Name":"72 MAZATLAN-ALFONSO REYES","End_Station_Lat":19.409893,"End_Station_Lon":-99.179544,"End_Colonia":"Hipodromo Condesa"},"297":{"Total_Rides":5,"Start_Station":5,"End_Station":34,"Start_Station_Name":"5 RIO PANUCO-RIO TIBER","Start_Station_Lat":19.42972,"Start_Station_Lon":-99.169363,"Start_Colonia":"Cuauhtemoc","End_Station_Name":"34 LIVERPOOL-GENOVA","End_Station_Lat":19.424725,"End_Station_Lon":-99.163331,"End_Colonia":"Juarez"},"298":{"Total_Rides":5,"Start_Station":56,"End_Station":80,"Start_Station_Name":"56 ALVARO OBREGON-MEDELLIN","Start_Station_Lat":19.416959,"Start_Station_Lon":-99.165702,"Start_Colonia":"Roma Norte","End_Station_Name":"80 NUEVO LEON-AGUASCALIENTES","End_Station_Lat":19.407307,"End_Station_Lon":-99.172118,"End_Colonia":"Hipodromo"},"299":{"Total_Rides":5,"Start_Station":54,"End_Station":38,"Start_Station_Name":"54 PARQUE ESPA\u00d1A-SONORA","Start_Station_Lat":19.416215,"Start_Station_Lon":-99.170825,"Start_Colonia":"Condesa","End_Station_Name":"38 COZUMEL-PUEBLA","End_Station_Lat":19.420801,"End_Station_Lon":-99.171407,"End_Colonia":"Roma Norte"},"300":{"Total_Rides":5,"Start_Station":76,"End_Station":69,"Start_Station_Name":"76 CHILPANCINGO-CAMPECHE","Start_Station_Lat":19.408736,"Start_Station_Lon":-99.169913,"Start_Colonia":"Hipodromo","End_Station_Name":"69 MICHOACAN-AMSTERDAM","End_Station_Lat":19.410733,"End_Station_Lon":-99.168111,"End_Colonia":"Hipodromo"},"301":{"Total_Rides":5,"Start_Station":11,"End_Station":17,"Start_Station_Name":"11 RIO AMAZONAS-RIO LERMA","Start_Station_Lat":19.430992,"Start_Station_Lon":-99.163593,"Start_Colonia":"Cuauhtemoc","End_Station_Name":"17 REFORMA-RIO TIBER","End_Station_Lat":19.427501,"End_Station_Lon":-99.167125,"End_Colonia":"Cuauhtemoc"},"302":{"Total_Rides":5,"Start_Station":77,"End_Station":65,"Start_Station_Name":"77 CHOAPAN-TAMAULIPAS","Start_Station_Lat":19.406765,"Start_Station_Lon":-99.178321,"Start_Colonia":"Hipodromo","End_Station_Name":"65 MARCONI-TACUBA","End_Station_Lat":19.436142,"End_Station_Lon":-99.139906,"End_Colonia":"Centro"},"303":{"Total_Rides":5,"Start_Station":81,"End_Station":37,"Start_Station_Name":"81 AGUASCALIENTES-INSURGENTES","Start_Station_Lat":19.408006,"Start_Station_Lon":-99.168475,"Start_Colonia":"Hipodromo","End_Station_Name":"37 GUADALAJARA-PUEBLA","End_Station_Lat":19.420419,"End_Station_Lon":-99.172676,"End_Colonia":"Roma Norte"},"304":{"Total_Rides":5,"Start_Station":27,"End_Station":9,"Start_Station_Name":"27 REFORMA-HAVRE","Start_Station_Lat":19.429115,"Start_Station_Lon":-99.162614,"Start_Colonia":"Juarez","End_Station_Name":"9 RIO GUADALQUIVIR-RIO LERMA","End_Station_Lat":19.428009,"End_Station_Lon":-99.169918,"End_Colonia":"Cuauhtemoc"},"305":{"Total_Rides":5,"Start_Station":56,"End_Station":70,"Start_Station_Name":"56 ALVARO OBREGON-MEDELLIN","Start_Station_Lat":19.416959,"Start_Station_Lon":-99.165702,"Start_Colonia":"Roma Norte","End_Station_Name":"70 PARQUE MEXICO-MICHOACAN","End_Station_Lat":19.411272,"End_Station_Lon":-99.169718,"End_Colonia":"Hipodromo"},"306":{"Total_Rides":5,"Start_Station":59,"End_Station":80,"Start_Station_Name":"59 POPOCATEPETL-AMSTERDAM","Start_Station_Lat":19.415121,"Start_Station_Lon":-99.166661,"Start_Colonia":"Hipodromo","End_Station_Name":"80 NUEVO LEON-AGUASCALIENTES","End_Station_Lat":19.407307,"End_Station_Lon":-99.172118,"End_Colonia":"Hipodromo"},"307":{"Total_Rides":5,"Start_Station":57,"End_Station":64,"Start_Station_Name":"57 CUERNAVACA-JUAN ESCUTIA","Start_Station_Lat":19.414903,"Start_Station_Lon":-99.17495,"Start_Colonia":"Condesa","End_Station_Name":"64 SONORA-AMSTERDAM","End_Station_Lat":19.412877,"End_Station_Lon":-99.166986,"End_Colonia":"Hipodromo"},"308":{"Total_Rides":5,"Start_Station":53,"End_Station":78,"Start_Station_Name":"53 FERNANDO MONTES DE OCA-TULA","Start_Station_Lat":19.414773,"Start_Station_Lon":-99.178433,"Start_Colonia":"Condesa","End_Station_Name":"78 BENJAMIN HILL-TAMAULIPAS","End_Station_Lat":19.407503,"End_Station_Lon":-99.177382,"End_Colonia":"Hipodromo"},