{"stations":[{"id":124,"name":"124 CLAUDIO BERNARD-DR. LICEAGA","address":"124 - Claudio Bernard-Dr. Liceaga","addressNumber":"S\/N","zipCode":"06500","districtCode":"1","districtName":"Ampliaci\u00f3n Granada","altitude":null,"nearbyStations":[119,123,133],"location":{"lat":19.422392,"lon":-99.150358},"stationType":"BIKE"},{"id":159,"name":"159 HUATABAMPO-EJE 1 PTE. AV. CUAUHT\u00c9MOC","address":"159 - Huatabampo-Eje 1 Pte. Av. Cuauht\u00e9moc","addressNumber":"S\/N","zipCode":"06760","districtCode":"1","districtName":"Ampliaci\u00f3n Granada","altitude":null,"nearbyStations":[155,158,163],"location":{"lat":19.407517,"lon":-99.155373},"stationType":"BIKE"},{"id":241,"name":"E241 EJERCITO NAL-JUAN VAZQUEZ DE LA MELLA ","address":"241 - Ejercito Nacional-Juan Vazquez de la Mella","addressNumber":"S\/N","zipCode":"11520","districtCode":"1","districtName":"Ampliaci\u00f3n Granada","altitude":null,"nearbyStations":[222,460],"location":{"lat":19.43862,"lon":-99.20758},"stationType":"ELECTRIC_BIKE"},{"id":243,"name":"243 MIGUEL DE CERVANTES SAAVEDRA-LAGO FILT ","address":"243 - Miguel de Cervantes Saavedra-Lago Filt","addressNumber":"S\/N","zipCode":"11510","districtCode":"1","districtName":"Ampliaci\u00f3n Granada","altitude":null,"nearbyStations":[199,242,244],"location":{"lat":19.440839,"lon":-99.196712},"stationType":"BIKE"},{"id":350,"name":"350 JOSE CLEMENTE OROZCO-CORREGGIO","address":"350 - Jose Clemente Orozco-Correggio","addressNumber":"S\/N","zipCode":"3710","districtCode":"1","districtName":"Ampliaci\u00f3n Granada","altitude":null,"nearbyStations":[349,352],"location":{"lat":19.384062,"lon":-99.181482},"stationType":"BIKE"},{"id":445,"name":"E445 RIFF-AVENIDA RIO CHURUBUSCO","address":"445 - Riff-Avenida Rio Churubusco","addressNumber":"S\/N","zipCode":"3340","districtCode":"1","districtName":"Ampliaci\u00f3n Granada","altitude":null,"nearbyStations":[431,434,446],"location":{"lat":19.35827,"lon":-99.156105},"stationType":"ELECTRIC_BIKE"},{"id":463,"name":"463 LAGO ANDR\u00d3MACO-LAGO ZURICH","address":"463 LAGO ANDR\u00d3MACO-LAGO ZURICH","addressNumber":"S\/N","zipCode":"11529","districtCode":"1","districtName":"Ampliaci\u00f3n Granada","altitude":null,"nearbyStations":[197,242,462],"location":{"lat":19.442338,"lon":-99.202492},"stationType":"BIKE"},{"id":469,"name":"E469 BAH\u00cdA DE LA CONCEPCI\u00d3N-BAH\u00cdA DE TODOS LOS SAN","address":"469BAH\u00cdA DELA CONCEPCI\u00d3N-BAH\u00cdA DE TODOS LOS SANTOS","addressNumber":"S\/N","zipCode":"11300","districtCode":"2","districtName":"Anzures","altitude":null,"nearbyStations":[247,470,472],"location":{"lat":19.434183,"lon":-99.173089},"stationType":"ELECTRIC_BIKE"},{"id":470,"name":"470 BAH\u00cdA DE LAS PALMAS-BAH\u00cdA DE TODOS LOS SANTOS","address":"470 BAH\u00cdA DE LAS PALMAS-BAH\u00cdA DE TODOS LOS SANTOS ","addressNumber":"S\/N","zipCode":"11300","districtCode":"2","districtName":"Anzures","altitude":null,"nearbyStations":[471,473],"location":{"lat":19.435039,"lon":-99.173879},"stationType":"BIKE"},{"id":471,"name":"471 BAH\u00cdA DE CHACHALACAS-BAH\u00cdA SANTA B\u00c1RBARA ","address":"471 BAH\u00cdA DE CHACHALACAS-BAH\u00cdA SANTA B\u00c1RBARA ","addressNumber":"S\/N","zipCode":"11300","districtCode":"2","districtName":"Anzures","altitude":null,"nearbyStations":[470,473,474],"location":{"lat":19.436287,"lon":-99.174888},"stationType":"BIKE"},{"id":472,"name":"E472 BAH\u00cdA SANTA B\u00c1RBARA-BAH\u00cdA DE BALLENAS ","address":"472 BAH\u00cdA SANTA B\u00c1RBARA-BAH\u00cdA DE BALLENAS ","addressNumber":"S\/N","zipCode":"11300","districtCode":"2","districtName":"Anzures","altitude":null,"nearbyStations":[247,469,471,473,474,479],"location":{"lat":19.437667,"lon":-99.17711},"stationType":"ELECTRIC_BIKE"},{"id":473,"name":"473 BAH\u00cdA DEL ESP\u00cdRITU SANTO-BAH\u00cdA DE BANDERAS","address":"473 BAH\u00cdA DEL ESP\u00cdRITU SANTO-BAH\u00cdA DE BANDERAS","addressNumber":"S\/N","zipCode":"11300","districtCode":"2","districtName":"Anzures","altitude":null,"nearbyStations":[471,474,478],"location":{"lat":19.438143,"lon":-99.17519},"stationType":"BIKE,TPV"},{"id":452,"name":"452 LEIBNITZ-AV. EJERCITO NACIONAL","address":"452 LEIBNITZ-AV. EJERCITO NACIONAL","addressNumber":"S\/N","zipCode":"11590","districtCode":"2","districtName":"Anzures","altitude":null,"nearbyStations":[452],"location":{"lat":19.435031,"lon":-99.179838},"stationType":"BIKE"},{"id":246,"name":"246 LEIBNITZ-THIERS","address":"246 - Leibnitz-Thiers","addressNumber":"S\/N","zipCode":"11510","districtCode":"2","districtName":"Anzures","altitude":null,"nearbyStations":[207,247,248],"location":{"lat":19.434147,"lon":-99.179835},"stationType":"BIKE"},{"id":247,"name":"E247 HERSCHEL-ROUSSEAU ","address":"247 - Herschel-Rousseau","addressNumber":"S\/N","zipCode":"11510","districtCode":"2","districtName":"Anzures","altitude":null,"nearbyStations":[246,469,472],"location":{"lat":19.432276,"lon":-99.18064},"stationType":"ELECTRIC_BIKE"},{"id":248,"name":"248 SHAKESPEARE-LAFAYETTE ","address":"248 - Shakespeare-Lafayette","addressNumber":"S\/N","zipCode":"11510","districtCode":"2","districtName":"Anzures","altitude":null,"nearbyStations":[246,247,249],"location":{"lat":19.43175,"lon":-99.177399},"stationType":"BIKE"},{"id":249,"name":"249 SHAKESPEARE-DARWIN ","address":"249 - Shakespeare-Darwin","addressNumber":"S\/N","zipCode":"11510","districtCode":"2","districtName":"Anzures","altitude":null,"nearbyStations":[248,250,251],"location":{"lat":19.429877,"lon":-99.177569},"stationType":"BIKE"},{"id":250,"name":"250 DARWIN-MARIANO ESCOBEDO ","address":"250 - Darwin-Mariano Escobedo","addressNumber":"S\/N","zipCode":"11510","districtCode":"2","districtName":"Anzures","altitude":null,"nearbyStations":[239,249,252],"location":{"lat":19.429057,"lon":-99.17966},"stationType":"BIKE,TPV"},{"id":251,"name":"251 GOETHE-DARWIN ","address":"251 - Goethe-Darwin","addressNumber":"S\/N","zipCode":"11510","districtCode":"2","districtName":"Anzures","altitude":null,"nearbyStations":[248,249,252],"location":{"lat":19.429261,"lon":-99.17538},"stationType":"BIKE"},{"id":252,"name":"252 VICTOR HUGO-SHAKESPEARE ","address":"252 - V\u00edctor Hugo-Shakespeare","addressNumber":"S\/N","zipCode":"11510","districtCode":"2","districtName":"Anzures","altitude":null,"nearbyStations":[249,251,253],"location":{"lat":19.427575,"lon":-99.17702},"stationType":"BIKE"},{"id":253,"name":"253 DANTE-TOLSTOI ","address":"253 - Dante-Tolstoi","addressNumber":"S\/N","zipCode":"11510","districtCode":"2","districtName":"Anzures","altitude":null,"nearbyStations":[195,252,261],"location":{"lat":19.425835,"lon":-99.177924},"stationType":"BIKE,TPV"},{"id":433,"name":"433 JOSE MAR\u00cdA OLLOQUI-LOP\u00c9Z COSTILLA","address":"433 - Jose Mar\u00eda Olloqui-Lop\u00e9z Costilla","addressNumber":"S\/N","zipCode":"3104","districtCode":"ACA","districtName":"Acacias","altitude":null,"nearbyStations":[434,435,439],"location":{"lat":19.363558,"lon":-99.170819},"stationType":"BIKE"},{"id":434,"name":"E434 JOSE MAR\u00cdA OLLOQUI-AMORES","address":"434 - Jose Mar\u00eda Olloqui-Amores","addressNumber":"S\/N","zipCode":"3104","districtCode":"ACA","districtName":"Acacias","altitude":null,"nearbyStations":[391,433,435],"location":{"lat":19.363741,"lon":-99.171268},"stationType":"ELECTRIC_BIKE"},{"id":423,"name":"423 MORAS-JOS\u00c9 MAR\u00cdA RICO (EJE 8)","address":"423 - Moras-Jos\u00e9 Mar\u00eda Rico (Eje 8)","addressNumber":"S\/N","zipCode":"3240","districtCode":"ACA","districtName":"Acacias","altitude":null,"nearbyStations":[422,436,437],"location":{"lat":19.367631,"lon":-99.175342},"stationType":"BIKE"},{"id":436,"name":"436 RODRIGUEZ SARO-BUFALLO","address":"436 - Rodriguez Saro-Bufallo","addressNumber":"S\/N","zipCode":"3240","districtCode":"ACA","districtName":"Acacias","altitude":null,"nearbyStations":[422,423,437],"location":{"lat":19.366217,"lon":-99.177819},"stationType":"BIKE"},{"id":437,"name":"437 MORAS-COMUNAL","address":"437 - Moras-Comunal","addressNumber":"S\/N","zipCode":"3240","districtCode":"ACA","districtName":"Acacias","altitude":null,"nearbyStations":[423,436,438],"location":{"lat":19.36480833,"lon":-99.17602222},"stationType":"BIKE"},{"id":438,"name":"438 ADOLFO PRIETO-JOS\u00c9 MAR\u00cdA OLLOQUI","address":"438 - Adolfo Prieto-Jos\u00e9 Mar\u00eda Olloqui","addressNumber":"S\/N","zipCode":"3240","districtCode":"ACA","districtName":"Acacias","altitude":null,"nearbyStations":[434,435,437],"location":{"lat":19.36479722,"lon":-99.17458333},"stationType":"BIKE"},{"id":439,"name":"439 AMORES-AVENIDA COYOAC\u00c1N","address":"439 - Amores-Avenida Coyoac\u00e1n","addressNumber":"S\/N","zipCode":"3240","districtCode":"ACA","districtName":"Acacias","altitude":null,"nearbyStations":[433,434,438],"location":{"lat":19.36218889,"lon":-99.17246667},"stationType":"BIKE"},{"id":420,"name":"420 MAR\u00cdA LUZ BRINGAS-OSO","address":"420 - Mar\u00eda Luz Bringas-Oso","addressNumber":"S\/N","zipCode":"3230","districtCode":"ACT","districtName":"Actipan","altitude":null,"nearbyStations":[418,419,421],"location":{"lat":19.369723,"lon":-99.17964},"stationType":"BIKE"},{"id":421,"name":"421 MAR\u00cdA LUZ BRINGAS-OSO","address":"421 - Mar\u00eda Luz Bringas-Oso","addressNumber":"S\/N","zipCode":"3230","districtCode":"ACT","districtName":"Actipan","altitude":null,"nearbyStations":[419,420,422],"location":{"lat":19.369467,"lon":-99.179401},"stationType":"BIKE"},{"id":422,"name":"422 BUFALO-JOS\u00c9 MAR\u00cdA RICO (EJE 8)","address":"422 - Bufalo-Jos\u00e9 Mar\u00eda Rico (Eje 8)","addressNumber":"S\/N","zipCode":"3230","districtCode":"ACT","districtName":"Actipan","altitude":null,"nearbyStations":[421,423,436],"location":{"lat":19.368356,"lon":-99.177487},"stationType":"BIKE"},{"id":416,"name":"416 RECREO-PARROQU\u00cdA","address":"416 - Recreo-Parroqu\u00eda","addressNumber":"S\/N","zipCode":"3104","districtCode":"ACT","districtName":"Actipan","altitude":null,"nearbyStations":[390,391,415],"location":{"lat":19.371308,"lon":-99.177607},"stationType":"BIKE"},{"id":479,"name":"E479 LAGO MURITZ-AV. MARINA NACIONAL","address":"479 LAGO MURITZ-AV.MARINA NACIONAL","addressNumber":"S\/N","zipCode":"11310","districtCode":"AME","districtName":"An\u00e1huac Mariano Escobedo","altitude":null,"nearbyStations":[467,469,472,476,477,478],"location":{"lat":19.444433,"lon":-99.179664},"stationType":"ELECTRIC_BIKE"},{"id":480,"name":"480 LAGO ISEO-AV. MARINA NACIONAL","address":"480 LAGO ISEO-AV. MARINA NACIONAL","addressNumber":"S\/N","zipCode":"11310","districtCode":"AME","districtName":"An\u00e1huac Mariano Escobedo","altitude":null,"nearbyStations":[476,477,478],"location":{"lat":19.446073,"lon":-99.181654},"stationType":"BIKE"},{"id":464,"name":"E464 MATEO ALEM\u00c1N-PROLONGACI\u00d3N MOLIERE ","address":"464 MATEO ALEM\u00c1N-PROLONGACI\u00d3N MOLIERE ","addressNumber":"S\/N ","zipCode":"11529","districtCode":"AMG","districtName":"Ampliaci\u00f3n Granada","altitude":null,"nearbyStations":[241,242,463,467],"location":{"lat":19.442421,"lon":-99.199838},"stationType":"ELECTRIC_BIKE"},{"id":333,"name":"333 GEORGIA -CAROLINA","address":"333 - Georgia -Carolina","addressNumber":"S\/N","zipCode":"3810","districtCode":"AMN","districtName":"Ampliaci\u00f3n N\u00e1poles","altitude":null,"nearbyStations":[330,332,349],"location":{"lat":19.387624,"lon":-99.180978},"stationType":"BIKE"},{"id":349,"name":"349 AUGUSTO RODIN-AVENIDA SAN ANTONIO","address":"349 - Augusto Rodin-Avenida San Antonio","addressNumber":"S\/N","zipCode":"3840","districtCode":"AMN","districtName":"Ampliaci\u00f3n N\u00e1poles","altitude":null,"nearbyStations":[332,348,350],"location":{"lat":19.385688,"lon":-99.180857},"stationType":"BIKE"},{"id":326,"name":"326 EUGENIA-NEBRASKA","address":"326 - Eugenia-Nebraska","addressNumber":"S\/N","zipCode":"3840","districtCode":"AMN","districtName":"Ampliaci\u00f3n N\u00e1poles","altitude":null,"nearbyStations":[327,334,335],"location":{"lat":19.388978,"lon":-99.174811},"stationType":"BIKE"},{"id":466,"name":"466  LAGO ONEGA-LAGO LADOGA","address":"466  LAGO ONEGA-LAGO LADOGA","addressNumber":"S\/N","zipCode":"11310","districtCode":"ANH","districtName":"An\u00e1huac Dos Lagos","altitude":null,"nearbyStations":[243,244,465],"location":{"lat":19.44269,"lon":-99.19083},"stationType":"BIKE"},{"id":474,"name":"474 BAH\u00cdA DE SAN HIP\u00d3LITO-BAH\u00cdA DEL ESP\u00cdRITU SANTO","address":"474 BAH\u00cdA DE SAN HIP\u00d3LITO-BAH\u00cdA DEL ESP\u00cdRITU SANTO","addressNumber":"S\/N","zipCode":"11320","districtCode":"ANI","districtName":"An\u00e1huac I","altitude":null,"nearbyStations":[473,475,478],"location":{"lat":19.438984,"lon":-99.177549},"stationType":"BIKE"},{"id":475,"name":"475 LAGO MURITZ-LAGO ALBERTO","address":"475 LAGO MURITZ-LAGO ALBERTO","addressNumber":"S\/N","zipCode":"11320","districtCode":"ANI","districtName":"An\u00e1huac I","altitude":null,"nearbyStations":[468,474,477],"location":{"lat":19.439249,"lon":-99.181065},"stationType":"BIKE"},{"id":477,"name":"477 LAGO ISEO-LAGUNA DE MAYR\u00c1N ","address":"477 LAGO ISEO-LAGUNA DE MAYR\u00c1N ","addressNumber":"S\/N","zipCode":"11320","districtCode":"ANI","districtName":"An\u00e1huac I","altitude":null,"nearbyStations":[475,476,478],"location":{"lat":19.440905,"lon":-99.181743},"stationType":"BIKE"},{"id":478,"name":"478 LAGUNA DE MAYR\u00c1N-LAGO CHALCO","address":"478 LAGUNA DE MAYR\u00c1N-LAGO CHALCO","addressNumber":"S\/N","zipCode":"11320","districtCode":"ANI","districtName":"An\u00e1huac I","altitude":null,"nearbyStations":[473,474,477],"location":{"lat":19.440818,"lon":-99.176961},"stationType":"BIKE"},{"id":468,"name":"468 LAGO XOCHIMILCO-AV. EJ\u00c9RCITO NACIONAL","address":"468 LAGO XOCHIMILCO-AV. EJ\u00c9RCITO NACIONAL","addressNumber":"S\/N","zipCode":"11320","districtCode":"ANI","districtName":"An\u00e1huac I","altitude":null,"nearbyStations":[452,474,475],"location":{"lat":19.4366022,"lon":-99.1796833},"stationType":"BIKE"},{"id":264,"name":"264 H\u00c9ROES FERROCARRILEROS-AV. CENTRAL","address":"264 - H. Ferrocarrileros - Jes\u00fas Garcia ","addressNumber":"S\/N","zipCode":"06350","districtCode":"BUE","districtName":"Buenavista","altitude":null,"nearbyStations":[265,266,268],"location":{"lat":19.440985,"lon":-99.152935},"stationType":"BIKE"},{"id":265,"name":"265 H\u00c9ROES FERROCARRILEROS-JES\u00daS GARCIA","address":"265 - Jes\u00fas Garcia-H\u00e9roes Ferrocarrileros","addressNumber":"S\/N","zipCode":"06350","districtCode":"BUE","districtName":"Buenavista","altitude":null,"nearbyStations":[264,275],"location":{"lat":19.440839,"lon":-99.152265},"stationType":"BIKE,TPV"},{"id":266,"name":"266 AV. JES\u00daS GARCIA-CARLOS J. MENESES ","address":"266 - Av. Jes\u00fas Garcia -  Carlos J. Meneses","addressNumber":"S\/N","zipCode":"06350","districtCode":"BUE","districtName":"Buenavista","altitude":null,"nearbyStations":[267,268,269],"location":{"lat":19.444031,"lon":-99.152187},"stationType":"BIKE,TPV"},{"id":267,"name":"267 AV. JES\u00dcS GARC\u00cfA-CARLOS J. MENESES","address":"267 - Carlos J. Meneses - Av. jes\u00fas Garc\u00eda","addressNumber":"S\/N","zipCode":"06350","districtCode":"BUE","districtName":"Buenavista","altitude":null,"nearbyStations":[176,266,271],"location":{"lat":19.443735,"lon":-99.152203},"stationType":"BIKE"},{"id":268,"name":"268 LUIS DONALDO COLOSIO-AV.JES\u00daS GARC\u00cdA ","address":"268 Luis Donaldo Colosio - Av. Jesus Garcia","addressNumber":"S\/N","zipCode":"06350","districtCode":"BUE","districtName":"Buenavista","altitude":null,"nearbyStations":[176,269,273],"location":{"lat":19.442467,"lon":-99.151658},"stationType":"BIKE"},{"id":269,"name":"269 LUIS DONALDO COLOSIO-ALDAMA ","address":"269 Luis Donaldo Colosio - Aldama","addressNumber":"S\/N","zipCode":"06350","districtCode":"BUE","districtName":"Buenavista","altitude":null,"nearbyStations":[176,268,273],"location":{"lat":19.442448,"lon":-99.151586},"stationType":"BIKE"},{"id":271,"name":"271 AV. CENTRAL-J. MENESES ","address":"271 Av. Jes\u00fas Garc\u00eda - J. Meneses","addressNumber":"S\/N","zipCode":"06350","districtCode":"BUE","districtName":"Buenavista","altitude":null,"nearbyStations":[266,267,272],"location":{"lat":19.443928,"lon":-99.152525},"stationType":"BIKE"},{"id":272,"name":"272 AV. CENTRAL-J. MENESES ","address":"272 Av. Jesus Garcia - J. Meneses","addressNumber":"S\/N","zipCode":"06350","districtCode":"BUE","districtName":"Buenavista","altitude":null,"nearbyStations":[266,267,271],"location":{"lat":19.443556,"lon":-99.152556},"stationType":"BIKE"},{"id":273,"name":"273 LUIS DONALDO COLOSIO-AV. CENTRAL","address":"273 Luis Donaldo Colosio - Av. Jesus Garcia","addressNumber":"S\/N","zipCode":"06350","districtCode":"BUE","districtName":"Buenavista","altitude":null,"nearbyStations":[176,268,274],"location":{"lat":19.442707,"lon":-99.152956},"stationType":"BIKE"},{"id":274,"name":"274 LUIS DONALDO COLOSIO-AV INSURGENTES NORTE ","address":"274 Luis Donaldo Colosio - Av. Insurgentes Norte","addressNumber":"S\/N","zipCode":"06350","districtCode":"BUE","districtName":"Buenavista","altitude":null,"nearbyStations":[176,268,273],"location":{"lat":19.442772,"lon":-99.153289},"stationType":"BIKE"},{"id":275,"name":"275 H\u00c9ROES FERROCARRILEROS-AV. INSURGENTES NORTE","address":"275 H\u00e9roes Ferrocarrileros - Av. Jes\u00fas Garc\u00eda","addressNumber":"S\/N","zipCode":"06350","districtCode":"BUE","districtName":"Buenavista","altitude":null,"nearbyStations":[264,265],"location":{"lat":19.441062,"lon":-99.153164},"stationType":"BIKE"},{"id":176,"name":"176 AV. JES\u00dcS GARC\u00cfA-LUIS DONALDO COLOSIO","address":"176-LUIS DONALDO COLOSIO - AV. JES\u00dcS GARC\u00cfA","addressNumber":"S\/N","zipCode":"06350","districtCode":"BUE","districtName":"Buenavista","altitude":null,"nearbyStations":[266,267,272],"location":{"lat":19.442689,"lon":-99.152286},"stationType":"BIKE"},{"id":347,"name":"347 PENNSYLVANIA-MAXIMINO AVILA CAMACHO","address":"347 - Pennsylvania-Maximino Avila Camacho","addressNumber":"S\/N","zipCode":"3710","districtCode":"CDD","districtName":"Ciudad de los Deportes","altitude":null,"nearbyStations":[334,346,348],"location":{"lat":19.384378,"lon":-99.176097},"stationType":"BIKE,TPV"},{"id":353,"name":"353 CAROLINA-HOLBEIN","address":"353 - Carolina-Holbein","addressNumber":"S\/N","zipCode":"3710","districtCode":"CDD","districtName":"Ciudad de los Deportes","altitude":null,"nearbyStations":[354,361,362],"location":{"lat":19.382168,"lon":-99.178808},"stationType":"BIKE,TPV"},{"id":362,"name":"362 AUGUSTO RODIN-ALBERTO BALDERAS","address":"362 - Augusto Rodin-Alberto Balderas","addressNumber":"S\/N","zipCode":"3710","districtCode":"CDD","districtName":"Ciudad de los Deportes","altitude":null,"nearbyStations":[367,368],"location":{"lat":19.382207,"lon":-99.181043},"stationType":"BIKE"},{"id":363,"name":"363 HOLBEIN-PAULO UCELLO","address":"363 - Holbein-Paulo Ucello","addressNumber":"S\/N","zipCode":"3710","districtCode":"CDD","districtName":"Ciudad de los Deportes","altitude":null,"nearbyStations":[362,365,367],"location":{"lat":19.380813,"lon":-99.183851},"stationType":"BIKE"},{"id":260,"name":"E260 AV JUAREZ-BALDERAS ","address":"260 - Av. Ju\u00e1rez-Balderas","addressNumber":"S\/N","zipCode":"06000","districtCode":"CEN","districtName":"Centro","altitude":null,"nearbyStations":[29,33,41,108],"location":{"lat":19.435354,"lon":-99.147742},"stationType":"ELECTRIC_BIKE"},{"id":262,"name":"262 REPUBLICA DE CUBA-REPUBLICA DE BRASIL ","address":"262 - Republica de Cuba-Republica de Brasil","addressNumber":"S\/N","zipCode":"06000","districtCode":"CEN","districtName":"Centro","altitude":null,"nearbyStations":[91,92,93],"location":{"lat":19.43693,"lon":-99.13395},"stationType":"BIKE,TPV"},{"id":87,"name":"87 GANTE-VENUSTIANO CARRANZA","address":"087 - Gante - Venustiano Carranza","addressNumber":"S\/N","zipCode":"06000","districtCode":"CEN","districtName":"Centro","altitude":null,"nearbyStations":[95,96],"location":{"lat":19.43182,"lon":-99.13974},"stationType":"BIKE,TPV"},{"id":88,"name":"88 2A CDA 5 DE MAYO-PALMA","address":"088 - 2a Cerrada de 5 de Mayo - Palma","addressNumber":"S\/N","zipCode":"06000","districtCode":"CEN","districtName":"Centro","altitude":null,"nearbyStations":[55,89],"location":{"lat":19.433815,"lon":-99.135303},"stationType":"BIKE"},{"id":89,"name":"89 REPUBLICA DE GUATEMALA-MONTE DE PIEDAD","address":"089 - Rep\u00fablica de Guatemala - Monte de Piedad","addressNumber":"S\/N","zipCode":null,"districtCode":"CEN","districtName":"Centro","altitude":null,"nearbyStations":[90],"location":{"lat":19.434946,"lon":-99.133989},"stationType":"BIKE,TPV"},{"id":90,"name":"90 JOSE MARIA PINO SUAREZ-CORREGIDORA","address":"090 - Jos\u00e9 Mar\u00eda Pino Su\u00e1rez - Corregidora","addressNumber":"S\/N","zipCode":"06000","districtCode":"CEN","districtName":"Centro","altitude":null,"nearbyStations":[89],"location":{"lat":19.431698,"lon":-99.132446},"stationType":"BIKE,TPV"},{"id":91,"name":"91 REPUBLICA DE CUBA-ALLENDE","address":"091 - Republica de Cuba-Allende","addressNumber":"S\/N","zipCode":"06500","districtCode":"CEN","districtName":"Centro","altitude":null,"nearbyStations":[90,92,93],"location":{"lat":19.4374,"lon":-99.137571},"stationType":"BIKE"},{"id":92,"name":"92 SAN ILDEFONSO-REPUBLICA DE ARGENTINA","address":"092 - San Ildefonso-Rep\u00fablica de Argentina","addressNumber":"S\/N","zipCode":"06500","districtCode":"CEN","districtName":"Centro","altitude":null,"nearbyStations":[90,91,93],"location":{"lat":19.436531,"lon":-99.131497},"stationType":"BIKE"},{"id":93,"name":"93 PALMA NORTE-REPUBLICA DE CUBA","address":"093 - Palma Norte-Republica de Cuba","addressNumber":"S\/N","zipCode":"06500","districtCode":"CEN","districtName":"Centro","altitude":null,"nearbyStations":[90,91,92],"location":{"lat":19.436741,"lon":-99.134811},"stationType":"BIKE"},{"id":94,"name":"94 LIC. VERDAD-MONEDA","address":"94 - Lic. Verdad-Moneda","addressNumber":"S\/N","zipCode":"06000","districtCode":"CEN","districtName":"Centro","altitude":null,"nearbyStations":[94],"location":{"lat":19.433766,"lon":-99.130918},"stationType":"BIKE"},{"id":95,"name":"95 20 DE NOVIEMBRE-VENUSTIANO CARRANZA","address":"095 - 20 de Noviembre-Venustiano Carranza","addressNumber":"S\/N","zipCode":"06500","districtCode":"CEN","districtName":"Centro","altitude":null,"nearbyStations":[93,96,97],"location":{"lat":19.430722,"lon":-99.133698},"stationType":"BIKE"},{"id":96,"name":"96 LOPEZ-AYUNTAMIENTO","address":"096 - L\u00f3pez-Ayuntamiento","addressNumber":"S\/N","zipCode":"06500","districtCode":"CEN","districtName":"Centro","altitude":null,"nearbyStations":[98],"location":{"lat":19.430625,"lon":-99.14248},"stationType":"BIKE"},{"id":97,"name":"97 REPUBLICA DE SALVADOR-PINO SUAREZ","address":"097 - Republica de Salvador-Pino Suarez","addressNumber":"S\/N","zipCode":"06500","districtCode":"CEN","districtName":"Centro","altitude":null,"nearbyStations":[90,100],"location":{"lat":19.429189,"lon":-99.132759},"stationType":"BIKE,TPV"},{"id":98,"name":"98 EMILIO DONDE-AV. BALDERAS","address":"098 - Emilio Dond\u00e9-Av. Balderas","addressNumber":"S\/N","zipCode":"06500","districtCode":"CEN","districtName":"Centro","altitude":null,"nearbyStations":[107,108],"location":{"lat":19.430267,"lon":-99.14861},"stationType":"BIKE"},{"id":99,"name":"99 ERNESTO PUGIBET-LUIS MOYA","address":"99 - Ernesto Pugibet-Luis Moya","addressNumber":"S\/N","zipCode":"06000","districtCode":"CEN","districtName":"Centro","altitude":null,"nearbyStations":[96,98,122],"location":{"lat":19.42995,"lon":-99.14591},"stationType":"BIKE"},{"id":100,"name":"100 20 DE NOVIEMBRE-MESONES","address":"100 - 20 de Noviembre-Mesones","addressNumber":"S\/N","zipCode":"06500","districtCode":"CEN","districtName":"Centro","altitude":null,"nearbyStations":[95,97],"location":{"lat":19.428485,"lon":-99.1338},"stationType":"BIKE"},{"id":101,"name":"101 1ER. CALLEJ\u00d3N DE MESONES-MESONES","address":"1ER. CALLEJ\u00d3N DE MESONES - MESONES","addressNumber":"S\/N","zipCode":"06090","districtCode":"CEN","districtName":"Centro","altitude":null,"nearbyStations":[100,104,105],"location":{"lat":19.428366,"lon":-99.135895},"stationType":"BIKE"},{"id":102,"name":"102 ECHEVESTE-BOLIVAR","address":"102 - Echeveste-Bolivar","addressNumber":"S\/N","zipCode":"06000","districtCode":"CEN","districtName":"Centro","altitude":null,"nearbyStations":[104,109],"location":{"lat":19.42821,"lon":-99.13949},"stationType":"BIKE"},{"id":104,"name":"104 SAN JERONIMO-ISABEL LA CATOLICA","address":"104 - San Jer\u00f3nimo-Isabel la Cat\u00f3lica","addressNumber":"S\/N","zipCode":"06500","districtCode":"CEN","districtName":"Centro","altitude":null,"nearbyStations":[105,109],"location":{"lat":19.427059,"lon":-99.137116},"stationType":"BIKE,TPV"},{"id":105,"name":"105 SAN JERONIMO-5 DE FEBRERO","address":"105 - San Jer\u00f3nimo-5 de Febrero","addressNumber":"S\/N","zipCode":"06500","districtCode":"CEN","districtName":"Centro","altitude":null,"nearbyStations":[104,106],"location":{"lat":19.426755,"lon":-99.135014},"stationType":"BIKE"},{"id":106,"name":"106 SAN JERONIMO-JOSE MARIA PINO SUAREZ","address":"106 - San Jer\u00f3nimo-Jos\u00e9 Mar\u00eda Pino Suarez","addressNumber":"S\/N","zipCode":"06500","districtCode":"CEN","districtName":"Centro","altitude":null,"nearbyStations":[100,105],"location":{"lat":19.42649,"lon":-99.133537},"stationType":"BIKE"},{"id":107,"name":"107 TOLSA-BALDERAS","address":"107 - Tolsa-Balderas","addressNumber":"S\/N","zipCode":"06500","districtCode":"CEN","districtName":"Centro","altitude":null,"nearbyStations":[98,108,122],"location":{"lat":19.427329,"lon":-99.149971},"stationType":"BIKE"},{"id":108,"name":"E108 TOLSA-BALDERAS","address":"108 - Tolsa-Balderas","addressNumber":"S\/N","zipCode":"06500","districtCode":"CEN","districtName":"Centro","altitude":null,"nearbyStations":[33,98,107],"location":{"lat":19.427305,"lon":-99.149533},"stationType":"ELECTRIC_BIKE"},{"id":109,"name":"109 NEZAHUALCOYOTL-ISABEL LA CATOLICA","address":"109 - Nezahualc\u00f3yotl-Isabel la Cat\u00f3lica","addressNumber":"S\/N","zipCode":"06500","districtCode":"CEN","districtName":"Centro","altitude":null,"nearbyStations":[104,105,106],"location":{"lat":19.425311,"lon":-99.137421},"stationType":"BIKE"},{"id":29,"name":"29 REFORMA-BUCARELI","address":"029 - Reforma - Bucareli","addressNumber":"S\/N","zipCode":"06500","districtCode":"CEN","districtName":"Centro","altitude":null,"nearbyStations":[41],"location":{"lat":19.434913,"lon":-99.149939},"stationType":"BIKE,TPV"},{"id":43,"name":"43 JUAREZ-REVILLAGIGEDO","address":"043 - Revillagigedo - Ju\u00e1rez","addressNumber":"S\/N","zipCode":"06700","districtCode":"CEN","districtName":"Centro","altitude":null,"nearbyStations":[52,82],"location":{"lat":19.435228,"lon":-99.146063},"stationType":"BIKE,TPV"},{"id":48,"name":"48 INDEPENDENCIA-AZUETA","address":"048 - Independencia - Azueta","addressNumber":"S\/N","zipCode":"06700","districtCode":"CEN","districtName":"Centro","altitude":null,"nearbyStations":[82],"location":{"lat":19.433686,"lon":-99.146557},"stationType":"BIKE"},{"id":52,"name":"52 HIDALGO-TRUJANO","address":"052 - Dolores - Ju\u00e1rez","addressNumber":"S\/N","zipCode":"06140","districtCode":"CEN","districtName":"Centro","altitude":null,"nearbyStations":[52],"location":{"lat":19.436236,"lon":-99.142039},"stationType":"BIKE,TPV"},{"id":55,"name":"55 5 DE MAYO-BOLIVAR","address":"055 - 5 de Mayo - Bol\u00edvar","addressNumber":"S\/N","zipCode":"06700","districtCode":"CEN","districtName":"Centro","altitude":null,"nearbyStations":[65,87],"location":{"lat":19.434356,"lon":-99.138064},"stationType":"BIKE,TPV"},{"id":65,"name":"65 MARCONI-TACUBA","address":"065 - Marconi - Tacuba","addressNumber":"S\/N","zipCode":"06170","districtCode":"CEN","districtName":"Centro","altitude":null,"nearbyStations":[52,55],"location":{"lat":19.436142,"lon":-99.139906},"stationType":"BIKE,TPV"},{"id":82,"name":"82 INDEPENDENCIA-MARROQUI","address":"082 - Independencia - Marroqu\u00ed","addressNumber":"S\/N","zipCode":"06100","districtCode":"CEN","districtName":"Centro","altitude":null,"nearbyStations":[48],"location":{"lat":19.433115,"lon":-99.143686},"stationType":"BIKE,TPV"},{"id":192,"name":"192 RUBEN DARIO-REFORMA","address":"192 - Rub\u00e9n Dar\u00edo-Reforma","addressNumber":"S\/N","zipCode":"11510","districtCode":"CHA","districtName":"Bosque de Chapultepec","altitude":null,"nearbyStations":[193,234,238],"location":{"lat":19.42592,"lon":-99.190755},"stationType":"BIKE,TPV"},{"id":193,"name":"193 RUBEN DARIO-REFORMA","address":"193 - Rub\u00e9n Dar\u00edo.Reforma","addressNumber":"S\/N","zipCode":"11510","districtCode":"CHA","districtName":"Bosque de Chapultepec","altitude":null,"nearbyStations":[192,234,238],"location":{"lat":19.425907,"lon":-99.190733},"stationType":"BIKE"},{"id":194,"name":"194 CTO MAHATMA GANDHI-AV. PASEO DE LA REFORMA","address":"194 - Av. Paseo de la Reforma-Circuito Mahatma Gandhi","addressNumber":"S\/N","zipCode":"11510","districtCode":"CHA","districtName":"Bosque de Chapultepec","altitude":null,"nearbyStations":[195,253,261],"location":{"lat":19.424282,"lon":-99.180334},"stationType":"BIKE,TPV"},{"id":195,"name":"195 AV. PASEO DE LA REFORMA-CTO MAHATMA GANDHI","address":"195 - Circuito Mahatma Gandhi-Av. Paseo de la Reforma","addressNumber":"S\/N","zipCode":"11100","districtCode":"CHA","districtName":"Bosque de Chapultepec","altitude":null,"nearbyStations":[194,253,261],"location":{"lat":19.424926,"lon":-99.185147},"stationType":"BIKE,TPV"},{"id":62,"name":"62 FERNANDO MONTES DE OCA-AMATLAN","address":"062 - Fernando Montes de Oca - Amatlan","addressNumber":"S\/N","zipCode":"06140","districtCode":"CON","districtName":"Condesa","altitude":null,"nearbyStations":[67,71,74],"location":{"lat":19.413322,"lon":-99.175202},"stationType":"BIKE"},{"id":63,"name":"63 NUEVO LEON- LAREDO","address":"063 - Nuevo Le\u00f3n - Laredo","addressNumber":"S\/N","zipCode":"06100","districtCode":"CON","districtName":"Condesa","altitude":null,"nearbyStations":[70,76,77],"location":{"lat":19.413681,"lon":-99.171531},"stationType":"BIKE,TPV"},{"id":67,"name":"67 VICENTE SUAREZ-MICHOACAN","address":"067 - Vicente Su\u00e1rez - Michoacan","addressNumber":"S\/N","zipCode":"06170","districtCode":"CON","districtName":"Condesa","altitude":null,"nearbyStations":[62,66,68],"location":{"lat":19.411797,"lon":-99.17588},"stationType":"BIKE"},{"id":68,"name":"68 TAMAULIPAS-MICHOACAN","address":"068 - Tamaulipas - Michoacan","addressNumber":"S\/N","zipCode":"06170","districtCode":"CON","districtName":"Condesa","altitude":null,"nearbyStations":[67,71,74],"location":{"lat":19.411556,"lon":-99.17406},"stationType":"BIKE,TPV"},{"id":53,"name":"53 FERNANDO MONTES DE OCA-TULA","address":"053 - Fernando Montes de Oca - Tula","addressNumber":"S\/N","zipCode":"06140","districtCode":"CON","districtName":"Condesa","altitude":null,"nearbyStations":[52,60,65,66],"location":{"lat":19.414773,"lon":-99.178433},"stationType":"BIKE"},{"id":54,"name":"54 PARQUE ESPA\u00d1A-SONORA","address":"054 - Parque Espa\u00f1a - Sonora","addressNumber":"S\/N","zipCode":"06700","districtCode":"CON","districtName":"Condesa","altitude":null,"nearbyStations":[50,51,58,63],"location":{"lat":19.416215,"lon":-99.170825},"stationType":"BIKE,TPV"},{"id":57,"name":"57 CUERNAVACA-JUAN ESCUTIA","address":"057 - Cuernavaca - Juan Escutia","addressNumber":"S\/N","zipCode":"06140","districtCode":"CON","districtName":"Condesa","altitude":null,"nearbyStations":[48,49,50,62],"location":{"lat":19.414903,"lon":-99.17495},"stationType":"BIKE"},{"id":58,"name":"58 PARQUE ESPA\u00d1A-JUAN DE LA BARRERA","address":"058 - Parque Espa\u00f1a - Juan de la Barrera","addressNumber":"S\/N","zipCode":"06140","districtCode":"CON","districtName":"Condesa","altitude":null,"nearbyStations":[50,54,61,63],"location":{"lat":19.41568,"lon":-99.171793},"stationType":"BIKE"},{"id":60,"name":"60 MAZATLAN-FERNANDO MONTES DE OCA","address":"060 - Mazatl\u00e1n - Fernando Montes de Oca","addressNumber":"S\/N","zipCode":"06140","districtCode":"CON","districtName":"Condesa","altitude":null,"nearbyStations":[23,52,62,66],"location":{"lat":19.414191,"lon":-99.177123},"stationType":"BIKE"},{"id":49,"name":"49 MAZATLAN-JUAN DE LA BARRERA","address":"049 - Mazatl\u00e1n - Juan de la Barrera","addressNumber":"S\/N","zipCode":"06140","districtCode":"CON","districtName":"Condesa","altitude":null,"nearbyStations":[41,44,50,60],"location":{"lat":19.416712,"lon":-99.175704},"stationType":"BIKE"},{"id":50,"name":"50 CUERNAVACA-VERACRUZ","address":"050 - Cuernavaca - Veracruz","addressNumber":"S\/N","zipCode":"06140","districtCode":"CON","districtName":"Condesa","altitude":null,"nearbyStations":[44,49,57,58],"location":{"lat":19.416938,"lon":-99.173648},"stationType":"BIKE"},{"id":447,"name":"447 AGUST\u00cdN MELGAR-ZAMORA","address":"447 AGUST\u00cdN MELGAR-ZAMORA","addressNumber":"S\/N","zipCode":"06140","districtCode":"CON","districtName":"Condesa","altitude":null,"nearbyStations":[447],"location":{"lat":19.418858,"lon":-99.176776},"stationType":"BIKE"},{"id":4,"name":"4 RIO NILO-RIO PANUCO","address":"004 - R\u00edo Nilo - R\u00edo Panuco","addressNumber":"S\/N","zipCode":"06500","districtCode":"CUA","districtName":"Cuauht\u00e9moc","altitude":null,"nearbyStations":[5,8,9,10],"location":{"lat":19.428309,"lon":-99.171713},"stationType":"BIKE"},{"id":5,"name":"5 RIO PANUCO-RIO TIBER","address":"005 - R\u00edo P\u00e1nuco R\u00edo Tiber","addressNumber":"S\/N","zipCode":"06500","districtCode":"CUA","districtName":"Cuauht\u00e9moc","altitude":null,"nearbyStations":[2,4,9,10],"location":{"lat":19.42972,"lon":-99.169363},"stationType":"BIKE"},{"id":6,"name":"6 RIO PANUCO-RIO SENA","address":"006 - R\u00edo P\u00e1nuco - R\u00edo Sena","addressNumber":"S\/N","zipCode":"06500","districtCode":"CUA","districtName":"Cuauht\u00e9moc","altitude":null,"nearbyStations":[1,3,5,10],"location":{"lat":19.430922,"lon":-99.166959},"stationType":"BIKE"},{"id":7,"name":"7 RIO ELBA-RIO LERMA","address":"007 - R\u00edo Elba - R\u00edo Lerma","addressNumber":"S\/N","zipCode":"06500","districtCode":"CUA","districtName":"Cuauht\u00e9moc","altitude":null,"nearbyStations":[13,14,21,28],"location":{"lat":19.425468,"lon":-99.175166},"stationType":"BIKE"},{"id":1,"name":"1 RIO SENA-RIO BALSAS","address":"001 - R\u00edo Sena-R\u00edo Balsas","addressNumber":"S\/N","zipCode":"06500","districtCode":"CUA","districtName":"Cuauht\u00e9moc","altitude":null,"nearbyStations":[3,8,85],"location":{"lat":19.4335714,"lon":-99.1678091},"stationType":"BIKE,TPV"},{"id":2,"name":"2 RIO GUADALQUIVIR-RIO BALSAS","address":"002 - R\u00edo Guadalquivir - R\u00edo Balsas","addressNumber":"S\/N","zipCode":"06500","districtCode":"CUA","districtName":"Cuauht\u00e9moc","altitude":null,"nearbyStations":[1,5],"location":{"lat":19.431386,"lon":-99.171695},"stationType":"BIKE"},{"id":9,"name":"9 RIO GUADALQUIVIR-RIO LERMA","address":"009 - R\u00edo Guadalquivir - R\u00edo Lerma","addressNumber":"S\/N","zipCode":"06500","districtCode":"CUA","districtName":"Cuauht\u00e9moc","altitude":null,"nearbyStations":[4,5,8,16],"location":{"lat":19.428009,"lon":-99.169918},"stationType":"BIKE"},{"id":11,"name":"11 RIO AMAZONAS-RIO LERMA","address":"011 - R\u00edo Amazonas - Rio Lerma","addressNumber":"S\/N","zipCode":"06500","districtCode":"CUA","districtName":"Cuauht\u00e9moc","altitude":null,"nearbyStations":[3,12,19],"location":{"lat":19.430992,"lon":-99.163593},"stationType":"BIKE"},{"id":12,"name":"12 RIO LERMA-VILLALONGIN","address":"012 - R\u00edo Lerma - Villalongin","addressNumber":"S\/N","zipCode":"06500","districtCode":"CUA","districtName":"Cuauht\u00e9moc","altitude":null,"nearbyStations":[11,19,20,85],"location":{"lat":19.432313,"lon":-99.161597},"stationType":"BIKE"},{"id":13,"name":"13 REFORMA-RIO MISSISSIPPI","address":"013 - Reforma - Rio Mississippi","addressNumber":"S\/N","zipCode":"06500","districtCode":"CUA","districtName":"Cuauht\u00e9moc","altitude":null,"nearbyStations":[7,14,21],"location":{"lat":19.42502,"lon":-99.17231},"stationType":"BIKE,TPV"},{"id":14,"name":"14 REFORMA-RIO DE PLATA","address":"014 - Reforma - Rio de Plata","addressNumber":"S\/N","zipCode":"06500","districtCode":"CUA","districtName":"Cuauht\u00e9moc","altitude":null,"nearbyStations":[13,21,22,28],"location":{"lat":19.424768,"lon":-99.173261},"stationType":"BIKE"},{"id":15,"name":"15 REFORMA-RIO MISSISSIPPI","address":"015 - Reforma - Rio Mississippi","addressNumber":"S\/N","zipCode":"06500","districtCode":"CUA","districtName":"Cuauht\u00e9moc","altitude":null,"nearbyStations":[14,16,22,23],"location":{"lat":19.425477,"lon":-99.171567},"stationType":"BIKE,TPV"},{"id":16,"name":"16 REFORMA-R\u00cdO TIBER","address":"016 - Reforma - Rio Tiber","addressNumber":"S\/N","zipCode":"06500","districtCode":"CUA","districtName":"Cuauht\u00e9moc","altitude":null,"nearbyStations":[9,23,24],"location":{"lat":19.427226,"lon":-99.168242},"stationType":"BIKE"},{"id":17,"name":"17 REFORMA-RIO TIBER","address":"017 - Reforma - Rio Tiber","addressNumber":"S\/N","zipCode":"06500","districtCode":"CUA","districtName":"Cuauht\u00e9moc","altitude":null,"nearbyStations":[16,18,25],"location":{"lat":19.427501,"lon":-99.167125},"stationType":"BIKE,TPV"},{"id":18,"name":"18 REFORMA-RIO RHIN","address":"018 - Reforma - R\u00edo Rhin","addressNumber":"S\/N","zipCode":"06500","districtCode":"CUA","districtName":"Cuauht\u00e9moc","altitude":null,"nearbyStations":[17,25],"location":{"lat":19.42888,"lon":-99.164176},"stationType":"BIKE,TPV"},{"id":19,"name":"19 REFORMA-RIO RHIN","address":"019 - Reforma - R\u00edo Rhin","addressNumber":"S\/N","zipCode":"06500","districtCode":"CUA","districtName":"Cuauht\u00e9moc","altitude":null,"nearbyStations":[12,20,27],"location":{"lat":19.429241,"lon":-99.163377},"stationType":"BIKE,TPV"},{"id":20,"name":"20 REFORMA-RIO TAMESIS","address":"020 - Reforma- Rio Tamesis","addressNumber":"S\/N","zipCode":"06500","districtCode":"CUA","districtName":"Cuauht\u00e9moc","altitude":null,"nearbyStations":[12,19,27],"location":{"lat":19.430964,"lon":-99.160206},"stationType":"BIKE"},{"id":257,"name":"E257 MANUEL MARIA CONTRERAS-VILLALONGIN ","address":"257 - Manuel Maria Contreras-Villalongin","addressNumber":"S\/N","zipCode":"06500","districtCode":"CUA","districtName":"Cuauht\u00e9moc","altitude":null,"nearbyStations":[6,33,160,469],"location":{"lat":19.4338,"lon":-99.16622},"stationType":"ELECTRIC_BIKE"},{"id":465,"name":"465 LAGUNA DE GINEBRA-LAGO WETTER","address":"465 LAGUNA DE GINEBRA-LAGO WETTER","addressNumber":"S\/N","zipCode":"11490","districtCode":"CUP","districtName":"Cuauht\u00e9moc Pensil","altitude":null,"nearbyStations":[243,244,466],"location":{"lat":19.445039,"lon":-99.194078},"stationType":"BIKE"},{"id":448,"name":"448 DR. ANDRADE - ARCOS DE BEL\u00c9N","address":"448 DR. ANDRADE ARCOS DE BEL\u00c9N","addressNumber":"S\/N","zipCode":"06720","districtCode":"DOC","districtName":"Doctores","altitude":null,"nearbyStations":[448],"location":{"lat":19.426611,"lon":-99.14447},"stationType":"BIKE,TPV"},{"id":122,"name":"122 JOSE MARIA VERTIZ-AV.DR. RIO DE LA LOZA","address":"122 - Jos\u00e9 Mar\u00eda V\u00e9rtiz-Av. Dr. R\u00edo de la Loza","addressNumber":"S\/N","zipCode":"06500","districtCode":"DOC","districtName":"Doctores","altitude":null,"nearbyStations":[99,108],"location":{"lat":19.425502,"lon":-99.146337},"stationType":"BIKE"},{"id":123,"name":"123 CLAUDIO BERNARD-DR. LAVISTA","address":"123 - Claudio Bernard-Dr. Lavista","addressNumber":"S\/N","zipCode":"06500","districtCode":"DOC","districtName":"Doctores","altitude":null,"nearbyStations":[124,125,133],"location":{"lat":19.424161,"lon":-99.153117},"stationType":"BIKE"},{"id":110,"name":"110 DR. VALENZUELA-DR. R\u00cdO DE LA LOZA","address":"110 - Dr. Valenzuela-Dr. R\u00edo de la loza","addressNumber":"S\/N","zipCode":"06720","districtCode":"DOC","districtName":"Doctores","altitude":null,"nearbyStations":[107,108,122],"location":{"lat":19.42513,"lon":-99.14339},"stationType":"BIKE"},{"id":298,"name":"298 ROMERO DE TERREROS-GABRIEL MANCERA","address":"298 - Romero De Terreros-Gabriel Mancera","addressNumber":"S\/N","zipCode":"3103","districtCode":"DVC","districtName":"Del Valle Centro","altitude":null,"nearbyStations":[294,318,319],"location":{"lat":19.394073,"lon":-99.16214},"stationType":"BIKE"},{"id":299,"name":"299 ROMERO DE TERREROS-MIER Y PESADO","address":"299 - Romero De Terreros-Mier Y Pesado","addressNumber":"S\/N","zipCode":"3103","districtCode":"DVC","districtName":"Del Valle Centro","altitude":null,"nearbyStations":[292,298,318],"location":{"lat":19.394601,"lon":-99.165054},"stationType":"BIKE"},{"id":300,"name":"E300 PROVIDENCIA -LUZ SAVI\u00d1ON","address":"300 - Providencia -Luz Savi\u00f1on","addressNumber":"S\/N","zipCode":"3103","districtCode":"DVC","districtName":"Del Valle Centro","altitude":null,"nearbyStations":[296,301,302],"location":{"lat":19.393268,"lon":-99.168333},"stationType":"ELECTRIC_BIKE"},{"id":301,"name":"301 LUZ SAVI\u00d1\u00d3N-MAGDALENA","address":"301 - Luz Savi\u00f1\u00f3n-Magdalena","addressNumber":"S\/N","zipCode":"3103","districtCode":"DVC","districtName":"Del Valle Centro","altitude":null,"nearbyStations":[300,302,316],"location":{"lat":19.393807,"lon":-99.171133},"stationType":"BIKE"},{"id":302,"name":"302 LUZ SAVI\u00d1ON-MAGDALENA","address":"302 - Luz Savi\u00f1on-Magdalena","addressNumber":"S\/N","zipCode":"3103","districtCode":"DVC","districtName":"Del Valle Centro","altitude":null,"nearbyStations":[301,303,304],"location":{"lat":19.393832,"lon":-99.171466},"stationType":"BIKE"},{"id":291,"name":"291 MAGDALENA-DIVISI\u00d3N DEL NORTE","address":"291 - Magdalena-Divisi\u00f3n Del Norte","addressNumber":"S\/N","zipCode":"3103","districtCode":"DVC","districtName":"Del Valle Centro","altitude":null,"nearbyStations":[283,284,290],"location":{"lat":19.397651,"lon":-99.169946},"stationType":"BIKE"},{"id":316,"name":"316 SAN FRANCISCO-CONCEPCI\u00d3N BEISTEGUI","address":"316 - San Francisco-Concepci\u00f3n Beistegui","addressNumber":"S\/N","zipCode":"3103","districtCode":"DVC","districtName":"Del Valle Centro","altitude":null,"nearbyStations":[301,302],"location":{"lat":19.391056,"lon":-99.1712},"stationType":"BIKE"},{"id":317,"name":"317 AVENIDA COYOAC\u00c1N-TORRES ADALID","address":"317 - Avenida Coyoac\u00e1n-Torres Adalid","addressNumber":"S\/N","zipCode":"3103","districtCode":"DVC","districtName":"Del Valle Centro","altitude":null,"nearbyStations":[299,300,318],"location":{"lat":19.391456,"lon":-99.166157},"stationType":"BIKE,TPV"},{"id":318,"name":"318 LUZ SAVI\u00d1\u00d3N-AMORES","address":"318 - Luz Savi\u00f1\u00f3n-Amores","addressNumber":"S\/N","zipCode":"3103","districtCode":"DVC","districtName":"Del Valle Centro","altitude":null,"nearbyStations":[299,317,319],"location":{"lat":19.392249,"lon":-99.164127},"stationType":"BIKE"},{"id":319,"name":"319 DIAGONAL SAN ANTONIO-LUZ SAVI\u00d1ON","address":"319 - Diagonal San Antonio-Luz Savi\u00f1on","addressNumber":"S\/N","zipCode":"3103","districtCode":"DVC","districtName":"Del Valle Centro","altitude":null,"nearbyStations":[298,318,320],"location":{"lat":19.391991,"lon":-99.162684},"stationType":"BIKE"},{"id":372,"name":"372 DR. ROBERTO GAYOL-TLACOQUEMECATL","address":"372 - Dr. Roberto Gayol-Tlacoquemecatl","addressNumber":"S\/N","zipCode":"3104","districtCode":"DVC","districtName":"Del Valle Centro","altitude":null,"nearbyStations":[373,378,379],"location":{"lat":19.37797,"lon":-99.170289},"stationType":"BIKE,TPV"},{"id":373,"name":"373 PILARES-GABRIEL MANCERA","address":"373 - Pilares-Gabriel Mancera","addressNumber":"S\/N","zipCode":"3100","districtCode":"DVC","districtName":"Del Valle Centro","altitude":null,"nearbyStations":[357,372,378],"location":{"lat":19.377968,"lon":-99.166663},"stationType":"BIKE"},{"id":377,"name":"377 HERIBERTO FR\u00cdAS-MIGUEL LAURENT","address":"377 - Heriberto Fr\u00edas-Miguel Laurent","addressNumber":"S\/N","zipCode":"3104","districtCode":"DVC","districtName":"Del Valle Centro","altitude":null,"nearbyStations":[373,376,400],"location":{"lat":19.375394,"lon":-99.16375},"stationType":"BIKE"},{"id":378,"name":"378 MIGUEL LAURENT-AMORES","address":"378 - Miguel Laurent-Amores","addressNumber":"S\/N","zipCode":"3104","districtCode":"DVC","districtName":"Del Valle Centro","altitude":null,"nearbyStations":[372,373,379],"location":{"lat":19.375823,"lon":-99.168076},"stationType":"BIKE"},{"id":379,"name":"379 DR. ROBERTO GAYOL-MIGUEL LAURENT","address":"379 - Dr. Roberto Gayol-Miguel Laurent","addressNumber":"S\/N","zipCode":"3104","districtCode":"DVC","districtName":"Del Valle Centro","altitude":null,"nearbyStations":[378,380,395],"location":{"lat":19.375751,"lon":-99.17084},"stationType":"BIKE"},{"id":393,"name":"393 ADOLFO PRIETO-FELIX CUEVAS","address":"393 - Adolfo Prieto-Felix Cuevas","addressNumber":"S\/N","zipCode":"3200","districtCode":"DVC","districtName":"Del Valle Centro","altitude":null,"nearbyStations":[380,392,394],"location":{"lat":19.372796,"lon":-99.172558},"stationType":"BIKE,TPV"},{"id":356,"name":"356 MATIAS ROMERO -ADOLFO PRIETO","address":"356 - Matias Romero -Adolfo Prieto","addressNumber":"S\/N","zipCode":"3100","districtCode":"DVC","districtName":"Del Valle Centro","altitude":null,"nearbyStations":[355,357,372],"location":{"lat":19.381292,"lon":-99.170171},"stationType":"BIKE"},{"id":357,"name":"357 MATIAS ROMERO -AMORES","address":"357 - Matias Romero -Amores","addressNumber":"S\/N","zipCode":"3100","districtCode":"DVC","districtName":"Del Valle Centro","altitude":null,"nearbyStations":[356,358,373],"location":{"lat":19.380598,"lon":-99.1669248},"stationType":"BIKE"},{"id":358,"name":"358 NICOLAS SAN JUAN-MATIAS ROMERO ","address":"358 - Nicolas San Juan-Matias Romero","addressNumber":"S\/N","zipCode":"3100","districtCode":"DVC","districtName":"Del Valle Centro","altitude":null,"nearbyStations":[357,360,373],"location":{"lat":19.380168,"lon":-99.164222},"stationType":"BIKE"},{"id":359,"name":"359 MATIAS ROMERO -PESTALLOZZI","address":"359 - Matias Romero -Pestallozzi","addressNumber":"S\/N","zipCode":"3100","districtCode":"DVC","districtName":"Del Valle Centro","altitude":null,"nearbyStations":[342,360,374],"location":{"lat":19.379269,"lon":-99.161169},"stationType":"BIKE,TPV"},{"id":360,"name":"E360 HERIBERTO FR\u00cdAS-MATIAS ROMERO","address":"360 - Heriberto Fr\u00edas-Matias Romero","addressNumber":"S\/N","zipCode":"3100","districtCode":"DVC","districtName":"Del Valle Centro","altitude":null,"nearbyStations":[300,358,359,391],"location":{"lat":19.3790279,"lon":-99.1628259},"stationType":"ELECTRIC_BIKE"},{"id":344,"name":"344 HERIBERTO FR\u00cdAS-ANGEL URRAZA EJE 6 SUR","address":"344 - Heriberto Fr\u00edas-Angel Urraza Eje 6 Sur","addressNumber":"S\/N","zipCode":"3100","districtCode":"DVC","districtName":"Del Valle Centro","altitude":null,"nearbyStations":[338,343,358],"location":{"lat":19.382107,"lon":-99.162243},"stationType":"BIKE"},{"id":323,"name":"323 CONCEPCI\u00d3N BEISTEGUI-GABRIEL MANCERA","address":"323 - Concepci\u00f3n Beistegui-Gabriel Mancera","addressNumber":"S\/N","zipCode":"3103","districtCode":"DVC","districtName":"Del Valle Centro","altitude":null,"nearbyStations":[319,322,324],"location":{"lat":19.389026,"lon":-99.163403},"stationType":"BIKE"},{"id":324,"name":"324 AMORES-AVENIDA EUGENIA","address":"324 - Amores-Avenida Eugenia","addressNumber":"S\/N","zipCode":"3100","districtCode":"DVC","districtName":"Del Valle Centro","altitude":null,"nearbyStations":[323,336,337],"location":{"lat":19.3872468,"lon":-99.1656554},"stationType":"BIKE"},{"id":325,"name":"325 PROVIDENCIA -AVENIDA DEL VALLE","address":"325 - Providencia -Avenida Del Valle","addressNumber":"S\/N","zipCode":"3100","districtCode":"DVC","districtName":"Del Valle Centro","altitude":null,"nearbyStations":[316,335,336],"location":{"lat":19.3881779,"lon":-99.1696894},"stationType":"BIKE"},{"id":335,"name":"335 MAGDALENA-AMEYALCO","address":"335 - Magdalena-Ameyalco","addressNumber":"S\/N","zipCode":"3100","districtCode":"DVC","districtName":"Del Valle Centro","altitude":null,"nearbyStations":[326,334,346],"location":{"lat":19.387003,"lon":-99.173504},"stationType":"BIKE"},{"id":336,"name":"336 SAN BORJA-CDA. BARTOLOCHE","address":"336 - San Borja-Cda. Bartoloche","addressNumber":"S\/N","zipCode":"3100","districtCode":"DVC","districtName":"Del Valle Centro","altitude":null,"nearbyStations":[325,337,345],"location":{"lat":19.385531,"lon":-99.169673},"stationType":"BIKE"},{"id":337,"name":"337 SAN BORJA-MART\u00cdN MENLALDE","address":"337 - San Borja-Mart\u00edn Menlalde","addressNumber":"S\/N","zipCode":"3100","districtCode":"DVC","districtName":"Del Valle Centro","altitude":null,"nearbyStations":[324,336,338],"location":{"lat":19.384849,"lon":-99.16704},"stationType":"BIKE,TPV"},{"id":338,"name":"338 NICOLAS SAN JUAN-SAN BORJA","address":"338 - Nicolas San Juan-San Borja","addressNumber":"S\/N","zipCode":"3100","districtCode":"DVC","districtName":"Del Valle Centro","altitude":null,"nearbyStations":[324,336,337],"location":{"lat":19.384249,"lon":-99.163273},"stationType":"BIKE"},{"id":292,"name":"292 ADOLFO PRIETO-EJE 4 SUR XOLA","address":"292 - Adolfo Prieto-Eje 4 Sur Xola","addressNumber":"S\/N","zipCode":"3103","districtCode":"DVN","districtName":"Del Valle Norte","altitude":null,"nearbyStations":[283,293,299],"location":{"lat":19.396917,"lon":-99.166264},"stationType":"BIKE"},{"id":293,"name":"293 MIER Y PESADO-EJE 4 SUR XOLA","address":"293 - Mier Y Pesado-Eje 4 Sur Xola","addressNumber":"S\/N","zipCode":"3103","districtCode":"DVN","districtName":"Del Valle Norte","altitude":null,"nearbyStations":[283,292,294],"location":{"lat":19.397373,"lon":-99.164598},"stationType":"BIKE,TPV"},{"id":294,"name":"294 NICOL\u00c1S SAN JUAN-EJE 4 SUR XOLA","address":"294 - Nicol\u00e1s San Juan-Eje 4 Sur Xola","addressNumber":"S\/N","zipCode":"3020","districtCode":"DVN","districtName":"Del Valle Norte","altitude":null,"nearbyStations":[282,295,298],"location":{"lat":19.396513,"lon":-99.160924},"stationType":"BIKE"},{"id":278,"name":"278 MIER Y PESADO-OBRERO MUNDIAL","address":"278 - Mier Y Pesado-Obrero Mundial","addressNumber":"S\/N","zipCode":"3103","districtCode":"DVN","districtName":"Del Valle Norte","altitude":null,"nearbyStations":[164,279,282],"location":{"lat":19.40071,"lon":-99.163831},"stationType":"BIKE"},{"id":279,"name":"279 LA MORENA-PROVIDENCIA","address":"279 - La Morena-Providencia","addressNumber":"S\/N","zipCode":"3103","districtCode":"DVN","districtName":"Del Valle Norte","altitude":null,"nearbyStations":[164,278,282],"location":{"lat":19.399908,"lon":-99.166553},"stationType":"BIKE"},{"id":282,"name":"282 LA MORENA-EJE 2 PONIENTE GABRIEL MANCERA","address":"282 - La Morena-Eje 2 Poniente Gabriel Mancera","addressNumber":"S\/N","zipCode":"3103","districtCode":"DVN","districtName":"Del Valle Norte","altitude":null,"nearbyStations":[278,293,294],"location":{"lat":19.398692,"lon":-99.161273},"stationType":"BIKE"},{"id":283,"name":"283 AV. COYOAC\u00c1N-RAFAEL DONDE","address":"283 - Av. Coyoac\u00e1n-Rafael Donde","addressNumber":"S\/N","zipCode":"3103","districtCode":"DVN","districtName":"Del Valle Norte","altitude":null,"nearbyStations":[279,292,293],"location":{"lat":19.39827,"lon":-99.167383},"stationType":"BIKE"},{"id":394,"name":"394 DR. ROBERTO GAYOL-FELIX CUEVAS","address":"394 - Dr. Roberto Gayol-Felix Cuevas","addressNumber":"S\/N","zipCode":"3104","districtCode":"DVS","districtName":"Del Valle Sur","altitude":null,"nearbyStations":[393,395,396],"location":{"lat":19.372437,"lon":-99.171592},"stationType":"BIKE"},{"id":395,"name":"395 SAN LORENZO-CALLEJ\u00d3N MART\u00cdN MENLALDE","address":"395 - San Lorenzo-Callej\u00f3n Mart\u00edn Menlalde","addressNumber":"S\/N","zipCode":"3104","districtCode":"DVS","districtName":"Del Valle Sur","altitude":null,"nearbyStations":[379,394,396],"location":{"lat":19.373742,"lon":-99.169814},"stationType":"BIKE"},{"id":396,"name":"396 MART\u00cdN MENLALDE-FELIX CUEVAS","address":"396 - Mart\u00edn Menlalde-Felix Cuevas","addressNumber":"S\/N","zipCode":"3104","districtCode":"DVS","districtName":"Del Valle Sur","altitude":null,"nearbyStations":[394,395,413],"location":{"lat":19.371554,"lon":-99.170187},"stationType":"BIKE"},{"id":397,"name":"397 SAN LORENZO-GABRIEL MANCERA","address":"397 - San Lorenzo-Gabriel Mancera","addressNumber":"S\/N","zipCode":"3104","districtCode":"DVS","districtName":"Del Valle Sur","altitude":null,"nearbyStations":[398,399,400],"location":{"lat":19.373194,"lon":-99.167247},"stationType":"BIKE"},{"id":398,"name":"398 SANCHEZ AZCONA-FELIX CUEVAS","address":"398 - Sanchez Azcona-Felix Cuevas","addressNumber":"S\/N","zipCode":"3104","districtCode":"DVS","districtName":"Del Valle Sur","altitude":null,"nearbyStations":[397,399,400],"location":{"lat":19.37103,"lon":-99.16566},"stationType":"BIKE"},{"id":399,"name":"399 HERIBERTO FR\u00cdAS-SAN LORENZO","address":"399 - Heriberto Fr\u00edas-San Lorenzo","addressNumber":"S\/N","zipCode":"3104","districtCode":"DVS","districtName":"Del Valle Sur","altitude":null,"nearbyStations":[397,398,400],"location":{"lat":19.372407,"lon":-99.164519},"stationType":"BIKE"},{"id":400,"name":"400 SAN LORENZO-HERIBERTO FRIAS","address":"400 - San Lorenzo-Heriberto Frias","addressNumber":"S\/N","zipCode":"3104","districtCode":"DVS","districtName":"Del Valle Sur","altitude":null,"nearbyStations":[397,398,399],"location":{"lat":19.3726458,"lon":-99.1642743},"stationType":"BIKE"},{"id":435,"name":"435 RODRIGUEZ SARO-AVENIDA COYOAC\u00c1N","address":"435 - Rodriguez Saro-Avenida Coyoac\u00e1n","addressNumber":"S\/N","zipCode":"3230","districtCode":"DVS","districtName":"Del Valle Sur","altitude":null,"nearbyStations":[433,434,438],"location":{"lat":19.365154,"lon":-99.172906},"stationType":"BIKE"},{"id":391,"name":"E391 OSO-FELIX CUEVAS","address":"391 - Oso-Felix Cuevas","addressNumber":"S\/N","zipCode":"3104","districtCode":"DVS","districtName":"Del Valle Sur","altitude":null,"nearbyStations":[390,416,434],"location":{"lat":19.373142,"lon":-99.178283},"stationType":"ELECTRIC_BIKE"},{"id":413,"name":"413 PARROQUIA-AVENIDA COYOAC\u00c1N","address":"413 - Parroquia-Avenida Coyoac\u00e1n","addressNumber":"S\/N","zipCode":"3104","districtCode":"DVS","districtName":"Del Valle Sur","altitude":null,"nearbyStations":[396,414,424],"location":{"lat":19.369782,"lon":-99.171906},"stationType":"BIKE"},{"id":414,"name":"414 PARROQUIA-JOS\u00c9 IGNACIO BARTOLACHE","address":"414 - Parroquia-Jos\u00e9 Ignacio Bartolache","addressNumber":"S\/N","zipCode":"3104","districtCode":"DVS","districtName":"Del Valle Sur","altitude":null,"nearbyStations":[413,415,423],"location":{"lat":19.370187,"lon":-99.173712},"stationType":"BIKE"},{"id":415,"name":"415 SAN FRANCISCO-PARROQU\u00cdA","address":"415 - San Francisco-Parroqu\u00eda","addressNumber":"S\/N","zipCode":"3104","districtCode":"DVS","districtName":"Del Valle Sur","altitude":null,"nearbyStations":[391,414,416],"location":{"lat":19.371498,"lon":-99.17602},"stationType":"BIKE"},{"id":424,"name":"424 AMORES-JOS\u00c9 MAR\u00cdA RICO (EJE 8)","address":"424 - Amores-Jos\u00e9 Mar\u00eda Rico (Eje 8)","addressNumber":"S\/N","zipCode":"3104","districtCode":"DVS","districtName":"Del Valle Sur","altitude":null,"nearbyStations":[413,425,435],"location":{"lat":19.367208,"lon":-99.170531},"stationType":"BIKE"},{"id":425,"name":"425 NICOLAS SAN JUAN-AVENIDA UNIVERSIDAD","address":"425 - Nicolas San Juan-Avenida Universidad","addressNumber":"S\/N","zipCode":"3104","districtCode":"DVS","districtName":"Del Valle Sur","altitude":null,"nearbyStations":[411,412,426],"location":{"lat":19.367087,"lon":-99.16741},"stationType":"BIKE"},{"id":285,"name":"285 12 DE OCTUBRE-MINERIA","address":"285 - 12 De Octubre-Mineria","addressNumber":"S\/N","zipCode":"11800","districtCode":"ESC","districtName":"Escand\u00f3n","altitude":null,"nearbyStations":[171,173,286],"location":{"lat":19.3997946,"lon":-99.1775178},"stationType":"BIKE"},{"id":286,"name":"286 13 DE SEPTIEMBRE-AVENIDA PATRIOTISMO","address":"286 - 13 De Septiembre-Avenida Patriotismo","addressNumber":"S\/N","zipCode":"11800","districtCode":"ESC","districtName":"Escand\u00f3n","altitude":null,"nearbyStations":[171,285,287],"location":{"lat":19.399201,"lon":-99.179943},"stationType":"BIKE"},{"id":287,"name":"287 13 DE SEPTIEMBRE-PUENTE DE LA MORENA","address":"287 - 13 De Septiembre-Puente De La Morena","addressNumber":"S\/N","zipCode":"11800","districtCode":"ESC","districtName":"Escand\u00f3n","altitude":null,"nearbyStations":[286,288,311],"location":{"lat":19.398946,"lon":-99.183254},"stationType":"BIKE"},{"id":175,"name":"E175 MUTUALISMO-JOS\u00c9 MART\u00ed","address":"175 - Mutualismo-Jos\u00e9 Mart\u00ed","addressNumber":"S\/N","zipCode":"11800","districtCode":"ESC","districtName":"Escand\u00f3n","altitude":null,"nearbyStations":[173,182,300],"location":{"lat":19.400767,"lon":-99.172533},"stationType":"ELECTRIC_BIKE"},{"id":166,"name":"166 PROGRESO-CDA. ANTONIO MACEO","address":"166 - Progreso-Cda. Antonio Maceo","addressNumber":"S\/N","zipCode":"11800","districtCode":"ESC","districtName":"Escand\u00f3n","altitude":null,"nearbyStations":[170,172,181],"location":{"lat":19.406069,"lon":-99.183549},"stationType":"BIKE"},{"id":167,"name":"167 GENERAL SALVADOR ALVARADO-PROGRESO","address":"167 - General Salvador Alvarado-Progreso","addressNumber":"S\/N","zipCode":"11800","districtCode":"ESC","districtName":"Escand\u00f3n","altitude":null,"nearbyStations":[168,172,178],"location":{"lat":19.404651,"lon":-99.179375},"stationType":"BIKE"},{"id":168,"name":"168 COMERCIO-PROGRESO","address":"168 - Comercio-Progreso","addressNumber":"S\/N","zipCode":"11800","districtCode":"ESC","districtName":"Escand\u00f3n","altitude":null,"nearbyStations":[167,169,173],"location":{"lat":19.403997,"lon":-99.1776},"stationType":"BIKE,TPV"},{"id":169,"name":"169 PROSPERIDAD-PROGRESO","address":"169 - Prosperidad-Progreso","addressNumber":"S\/N","zipCode":"11800","districtCode":"ESC","districtName":"Escand\u00f3n","altitude":null,"nearbyStations":[168,170,175],"location":{"lat":19.403019,"lon":-99.174934},"stationType":"BIKE"},{"id":170,"name":"170 OBSERVATORIO ORIENTE-REVOLUCI\u00d3N","address":"170 - Observatorio Oriente-Revoluci\u00f3n","addressNumber":"S\/N","zipCode":"11800","districtCode":"ESC","districtName":"Escand\u00f3n","altitude":null,"nearbyStations":[166,167,172],"location":{"lat":19.404029,"lon":-99.184342},"stationType":"BIKE"},{"id":171,"name":"171 COMERCIO-JOSE MART\u00cd","address":"171 - Comercio-Jose Mart\u00ed","addressNumber":"S\/N","zipCode":"11800","districtCode":"ESC","districtName":"Escand\u00f3n","altitude":null,"nearbyStations":[167,168,173],"location":{"lat":19.402584,"lon":-99.178199},"stationType":"BIKE"},{"id":172,"name":"172 GENERAL FRANCISCO MURGUIA-JOSE MART\u00cd","address":"172 - General Francisco Murguia-Jose Mart\u00ed","addressNumber":"S\/N","zipCode":"11800","districtCode":"ESC","districtName":"Escand\u00f3n","altitude":null,"nearbyStations":[167,170,171],"location":{"lat":19.4034921,"lon":-99.1816002},"stationType":"BIKE"},{"id":173,"name":"173 MINER\u00cdA-JOS\u00c9 MART\u00cd","address":"173 - Miner\u00eda-Jose Mart\u00ed","addressNumber":"S\/N","zipCode":"1100","districtCode":"ESC","districtName":"Escand\u00f3n","altitude":null,"nearbyStations":[168,169,171],"location":{"lat":19.401682,"lon":-99.176398},"stationType":"BIKE"},{"id":387,"name":"387 CADIZ-EMPRESA","address":"387 - Cadiz-Empresa","addressNumber":"S\/N","zipCode":"3920","districtCode":"EXI","districtName":"Extremadura Insurgentes","altitude":null,"nearbyStations":[381,382,383],"location":{"lat":19.37455556,"lon":-99.180505555556},"stationType":"BIKE"},{"id":381,"name":"381 SAN LORENZO-MANZANAS","address":"381 - San Lorenzo-Manzanas","addressNumber":"S\/N","zipCode":"3200","districtCode":"EXI","districtName":"Extremadura Insurgentes","altitude":null,"nearbyStations":[382,387,389],"location":{"lat":19.375541,"lon":-99.177894},"stationType":"BIKE"},{"id":382,"name":"382 SAN LORENZO-AV. INSURGENTES","address":"382 - San Lorenzo-Av. Insurgentes","addressNumber":"S\/N","zipCode":" 3200 ","districtCode":"EXI","districtName":"Extremadura Insurgentes","altitude":null,"nearbyStations":[381,387,389],"location":{"lat":19.375591,"lon":-99.178084},"stationType":"BIKE"},{"id":383,"name":"383 LUIS CARACCI-2DA. LUIS CARACCI","address":"383 - Luis Caracci-2da. Luis Caracci","addressNumber":"S\/N","zipCode":"3740","districtCode":"EXI","districtName":"Extremadura Insurgentes","altitude":null,"nearbyStations":[366,382,387],"location":{"lat":19.375764,"lon":-99.181527},"stationType":"BIKE"},{"id":368,"name":"368 PORFIRIO D\u00cdAZ-CINCINATTI ","address":"368 - Porfirio D\u00edaz-Cincinatti","addressNumber":"S\/N","zipCode":"3740","districtCode":"EXI","districtName":"Extremadura Insurgentes","altitude":null,"nearbyStations":[366,367,369],"location":{"lat":19.379246,"lon":-99.179344},"stationType":"BIKE"},{"id":428,"name":"428 PROLONGACI\u00d3N UXMAL-AV. POPOCATEPETL (EJE 8)","address":"428 - Prolongaci\u00f3n Uxmal-Av. Popocatepetl (Eje 8)","addressNumber":"S\/N","zipCode":"3340","districtCode":"GPM","districtName":"General Pedro Maria Anaya","altitude":null,"nearbyStations":[427,430,431],"location":{"lat":19.363418,"lon":-99.160353},"stationType":"BIKE"},{"id":431,"name":"431 BRUNO TRAVEN-PAZ MONTES DE OCA","address":"431 - Bruno Traven-Paz Montes De Oca","addressNumber":"S\/N","zipCode":"3340","districtCode":"GPM","districtName":"General Pedro Maria Anaya","altitude":null,"nearbyStations":[428,429,430],"location":{"lat":19.36145,"lon":-99.15822},"stationType":"BIKE"},{"id":432,"name":"432 CARRILLO PUERTO-AV. M\u00c9XICO-COYOAC\u00c1N","address":"432 - Carrillo Pto-Golondrinas","addressNumber":"S\/N","zipCode":"3340","districtCode":"GPM","districtName":"General Pedro Maria Anaya","altitude":null,"nearbyStations":[442,443,444],"location":{"lat":19.361296,"lon":-99.162581},"stationType":"BIKE"},{"id":443,"name":"443 BRUNO TRAVEN-GOLONDRINAS","address":"443 - Bruno Trave-Avenida M\u00e9xico-Coyoacan","addressNumber":"S\/N","zipCode":"3340","districtCode":"GPM","districtName":"General Pedro Maria Anaya","altitude":null,"nearbyStations":[432,442,444],"location":{"lat":19.359655,"lon":-99.162025},"stationType":"BIKE"},{"id":444,"name":"444 GENERAL MANUEL RINC\u00d3N-AGUST\u00cdN GUTIERREZ","address":"444 - General Manuel Rinc\u00f3n-Agust\u00edn Gutierrez","addressNumber":"S\/N","zipCode":"3340","districtCode":"GPM","districtName":"General Pedro Maria Anaya","altitude":null,"nearbyStations":[431,432,443],"location":{"lat":19.359384,"lon":-99.159425},"stationType":"BIKE"},{"id":446,"name":"446 RIFF-AVENIDA RIO CHURUBUSCO","address":"446 - Riff-Avenida Rio Churubusco","addressNumber":"S\/N","zipCode":"3340","districtCode":"GPM","districtName":"General Pedro Maria Anaya","altitude":null,"nearbyStations":[431,444,445],"location":{"lat":19.3586,"lon":-99.156101},"stationType":"BIKE,TPV"},{"id":467,"name":"E467  LAGO MAYOR-LAGO ALBERTO","address":"467  LAGO MAYOR-LAGO ALBERTO","addressNumber":"S\/N","zipCode":"11520","districtCode":"GRA","districtName":"Granada","altitude":null,"nearbyStations":[464,472,479],"location":{"lat":19.440399,"lon":-99.186784},"stationType":"ELECTRIC_BIKE"},{"id":476,"name":"476 LAGO COMO-LAGUNA DE MAYR\u00c1N","address":"476 LAGO COMO-LAGUNA DE MAYR\u00c1N","addressNumber":"S\/N","zipCode":"11460","districtCode":"GRA","districtName":"Granada","altitude":null,"nearbyStations":[475,477],"location":{"lat":19.442127,"lon":-99.184433},"stationType":"BIKE,TPV"},{"id":240,"name":"240 EJERCITO NACIONAL-F.C. DE CUERNAVACA ","address":"240- Ejercito Nacional-F.C. de Cuernavaca","addressNumber":"S\/N","zipCode":"11510","districtCode":"GRA","districtName":"Granada","altitude":null,"nearbyStations":[198,241],"location":{"lat":19.43855,"lon":-99.2063},"stationType":"BIKE,TPV"},{"id":199,"name":"199 ANATOLE FRANCE-AV. EJERCITO NACIONAL","address":"199 - Anatole France-Av. Ej\u00e9rcito Nacional","addressNumber":"S\/N","zipCode":"11510","districtCode":"GRA","districtName":"Granada","altitude":null,"nearbyStations":[196,202,203],"location":{"lat":19.437934,"lon":-99.197241},"stationType":"BIKE"},{"id":244,"name":"244 MIGUEL DE CERVANTES SAAVEDRA-LAGO VICTORIA ","address":"244 - Miguel de Cervantes Saavedra-Lago Victoria","addressNumber":"S\/N","zipCode":"11510","districtCode":"GRA","districtName":"Granada","altitude":null,"nearbyStations":[196,243,245],"location":{"lat":19.440885,"lon":-99.193315},"stationType":"BIKE"},{"id":245,"name":"245 LAGO ONEGA-AV. EJERCITO NACIONAL ","address":"245 - Lago Onega-Av. Ej\u00e9rcito Nacional","addressNumber":"S\/N","zipCode":"11510","districtCode":"GRA","districtName":"Granada","altitude":null,"nearbyStations":[196,200,201],"location":{"lat":19.43819,"lon":-99.19048},"stationType":"BIKE"},{"id":242,"name":"242 MIGUEL DE CERVANTES SAAVEDRA-PROL MOLIERE ","address":"242 - Miguel de Cervantes Saavedra-Pr\u00f3l. Moliere","addressNumber":"S\/N","zipCode":"11510","districtCode":"GRA","districtName":"Granada","altitude":null,"nearbyStations":[198,199,243],"location":{"lat":19.440344,"lon":-99.20105},"stationType":"BIKE"},{"id":197,"name":"197 MIGUEL DE CERVANTES-FC DE CUERNAVACA","address":"197 - Miguel de Cervantes Saavedra-Ferrocarril de Cuernavaca","addressNumber":"S\/N","zipCode":"11520","districtCode":"GRA","districtName":"Granada","altitude":null,"nearbyStations":[197],"location":{"lat":19.440077,"lon":-99.204316},"stationType":"BIKE,TPV"},{"id":72,"name":"72 MAZATLAN-ALFONSO REYES","address":"072 - Mazatl\u00e1n - Alfonso Reyes","addressNumber":"S\/N","zipCode":"06170","districtCode":"H-C","districtName":"Hip\u00f3dromo Condesa","altitude":null,"nearbyStations":[65,66,75],"location":{"lat":19.409893,"lon":-99.179544},"stationType":"BIKE"},{"id":73,"name":"73 CAMPECHE-TAMAULIPAS","address":"073 - Campeche - Tamaulipas","addressNumber":"S\/N","zipCode":"06170","districtCode":"H-C","districtName":"Hip\u00f3dromo Condesa","altitude":null,"nearbyStations":[67,68,75],"location":{"lat":19.410245,"lon":-99.175612},"stationType":"BIKE"},{"id":177,"name":"177 BENJAMIN HILL-CARLOS ZETINA","address":"177 - BENJAMIN HILL-CARLOS ZETINA","addressNumber":"S\/N","zipCode":"06170","districtCode":"H-C","districtName":"Hip\u00f3dromo Condesa","altitude":null,"nearbyStations":[176,178,190],"location":{"lat":19.408841,"lon":-99.181692},"stationType":"BIKE"},{"id":178,"name":"178 TAMAULIPAS-FRANCISCO MURGU\u00cdA","address":"178 - Tamaulipas-Francisco Murgu\u00eda","addressNumber":"S\/N","zipCode":"06170","districtCode":"H-C","districtName":"Hip\u00f3dromo Condesa","altitude":null,"nearbyStations":[166,167,177],"location":{"lat":19.406833,"lon":-99.180457},"stationType":"BIKE,TPV"},{"id":66,"name":"66 MAZATLAN-FRANCISCO MARQUEZ","address":"066 - Mazatl\u00e1n - Francisco Marquez","addressNumber":"S\/N","zipCode":"06170","districtCode":"H-C","districtName":"Hip\u00f3dromo Condesa","altitude":null,"nearbyStations":[65,72],"location":{"lat":19.411402,"lon":-99.178666},"stationType":"BIKE"},{"id":75,"name":"75 ALFONSO REYES-ATLIXCO","address":"075 - Alfonso Reyes - Atlixco","addressNumber":"S\/N","zipCode":"06170","districtCode":"H-C","districtName":"Hip\u00f3dromo Condesa","altitude":null,"nearbyStations":[73,77,78],"location":{"lat":19.408722,"lon":-99.17669},"stationType":"BIKE"},{"id":76,"name":"76 CHILPANCINGO-CAMPECHE","address":"076 - Chilpancingo - Campeche","addressNumber":"S\/N","zipCode":"06100","districtCode":"HIP","districtName":"Hip\u00f3dromo","altitude":null,"nearbyStations":[70,71,74],"location":{"lat":19.408736,"lon":-99.169913},"stationType":"BIKE"},{"id":77,"name":"77 CHOAPAN-TAMAULIPAS","address":"077 - Choapan - Tamaulipas","addressNumber":"S\/N","zipCode":"06100","districtCode":"HIP","districtName":"Hip\u00f3dromo","altitude":null,"nearbyStations":[78,82],"location":{"lat":19.406765,"lon":-99.178321},"stationType":"BIKE"},{"id":78,"name":"78 BENJAMIN HILL-TAMAULIPAS","address":"078 - Benjam\u00edn Hill - Tamaulipas","addressNumber":"S\/N","zipCode":"06170","districtCode":"HIP","districtName":"Hip\u00f3dromo","altitude":null,"nearbyStations":[77,82],"location":{"lat":19.407503,"lon":-99.177382},"stationType":"BIKE,TPV"},{"id":79,"name":"79 SALTILLO-ALFONSO REYES","address":"079 - Saltillo - Alfonso Reyes","addressNumber":"S\/N","zipCode":"06100","districtCode":"HIP","districtName":"Hip\u00f3dromo","altitude":null,"nearbyStations":[75,80,83],"location":{"lat":19.407534,"lon":-99.174427},"stationType":"BIKE"},{"id":80,"name":"80 NUEVO LEON-AGUASCALIENTES","address":"080 - Nuevo Le\u00f3n - Aguascalientes","addressNumber":"S\/N","zipCode":"06100","districtCode":"HIP","districtName":"Hip\u00f3dromo","altitude":null,"nearbyStations":[79,83,84],"location":{"lat":19.407307,"lon":-99.172118},"stationType":"BIKE"},{"id":81,"name":"81 AGUASCALIENTES-INSURGENTES","address":"081 - Aguascalientes - Insurgentes","addressNumber":"S\/N","zipCode":"06100","districtCode":"HIP","districtName":"Hip\u00f3dromo","altitude":null,"nearbyStations":[76,84],"location":{"lat":19.408006,"lon":-99.168475},"stationType":"BIKE"},{"id":83,"name":"83 NUEVO LEON-ALFONSO REYES","address":"083 - Nuevo Le\u00f3n - Alfonso Reyes","addressNumber":"S\/N","zipCode":"06100","districtCode":"HIP","districtName":"Hip\u00f3dromo","altitude":null,"nearbyStations":[79,80],"location":{"lat":19.406296,"lon":-99.172117},"stationType":"BIKE,TPV"},{"id":84,"name":"84 CHILPANCINGO-TLAXCALA","address":"084 - Chilpancingo - Tlaxcala","addressNumber":"S\/N","zipCode":"06100","districtCode":"HIP","districtName":"Hip\u00f3dromo","altitude":null,"nearbyStations":[81,83],"location":{"lat":19.40702,"lon":-99.169587},"stationType":"BIKE"},{"id":64,"name":"64 SONORA-AMSTERDAM","address":"064 - Sonora - Amsterdam","addressNumber":"S\/N","zipCode":"06100","districtCode":"HIP","districtName":"Hip\u00f3dromo","altitude":null,"nearbyStations":[59,61,69],"location":{"lat":19.412877,"lon":-99.166986},"stationType":"BIKE"},{"id":69,"name":"69 MICHOACAN-AMSTERDAM","address":"069 - Michoac\u00e1n - Amsterdam","addressNumber":"S\/N","zipCode":"06100","districtCode":"HIP","districtName":"Hip\u00f3dromo","altitude":null,"nearbyStations":[70,76,77],"location":{"lat":19.410733,"lon":-99.168111},"stationType":"BIKE"},{"id":70,"name":"70 PARQUE MEXICO-MICHOACAN","address":"070 - Parque M\u00e9xico - Michoacan","addressNumber":"S\/N","zipCode":"06100","districtCode":"HIP","districtName":"Hip\u00f3dromo","altitude":null,"nearbyStations":[69,71,76],"location":{"lat":19.411272,"lon":-99.169718},"stationType":"BIKE,TPV"},{"id":71,"name":"71 AMSTERDAM-MICHOACAN","address":"071 - Amsterdam - Michoacan","addressNumber":"S\/N","zipCode":"06100","districtCode":"HIP","districtName":"Hip\u00f3dromo","altitude":null,"nearbyStations":[70,74,76],"location":{"lat":19.411423,"lon":-99.171351},"stationType":"BIKE"},{"id":61,"name":"61 AVENIDA MEXICO-SONORA","address":"061 - Avenida M\u00e9xico - Sonora","addressNumber":"S\/N","zipCode":"06100","districtCode":"HIP","districtName":"Hip\u00f3dromo","altitude":null,"nearbyStations":[59,63,64,70],"location":{"lat":19.413742,"lon":-99.169525},"stationType":"BIKE,TPV"},{"id":59,"name":"59 POPOCATEPETL-AMSTERDAM","address":"059 - Popocat\u00e9petl - Amsterdam","addressNumber":"S\/N","zipCode":"06100","districtCode":"HIP","districtName":"Hip\u00f3dromo","altitude":null,"nearbyStations":[55,56,61,64],"location":{"lat":19.415121,"lon":-99.166661},"stationType":"BIKE"},{"id":179,"name":"179 NUEVO LE\u00d3N-QUINTANA ROO","address":"179 - Nuevo Le\u00f3n-Quintana Roo","addressNumber":"S\/N","zipCode":"06100","districtCode":"HIP","districtName":"Hip\u00f3dromo","altitude":null,"nearbyStations":[154,180,182],"location":{"lat":19.404452,"lon":-99.171438},"stationType":"BIKE"},{"id":180,"name":"180 QUINTANA ROO-VILLA HERMOSA","address":"180 - Quintana Roo-Villa Hermosa","addressNumber":"S\/N","zipCode":"06100","districtCode":"HIP","districtName":"Hip\u00f3dromo","altitude":null,"nearbyStations":[154,179,182],"location":{"lat":19.404554,"lon":-99.169953},"stationType":"BIKE"},{"id":181,"name":"181 BENJAMIN FRANKLIN-OMETUSCO","address":"181 - Benjamin Franklin - Ometusco","addressNumber":"S\/N","zipCode":"06100","districtCode":"HIP","districtName":"Hip\u00f3dromo","altitude":null,"nearbyStations":[168,169,179],"location":{"lat":19.40472,"lon":-99.17448},"stationType":"BIKE"},{"id":182,"name":"182 PROGRESO-ASTRONOMOS","address":"182 - PROGRESO-ASTRONOMOS","addressNumber":"S\/N","zipCode":"11800","districtCode":"HIP","districtName":"Hip\u00f3dromo","altitude":null,"nearbyStations":[175,179],"location":{"lat":19.402089,"lon":-99.17139},"stationType":"BIKE,TPV"},{"id":74,"name":"74 NUEVO LEON-OZULAMA","address":"074 - Nuevo Le\u00f3n - Ozulama","addressNumber":"S\/N","zipCode":"06100","districtCode":"HIP","districtName":"Hip\u00f3dromo","altitude":null,"nearbyStations":[63,68,71],"location":{"lat":19.410343,"lon":-99.172831},"stationType":"BIKE"},{"id":384,"name":"384 EMPRESA-POUSSIN","address":"384 - Empresa-Poussin","addressNumber":"S\/N","zipCode":"3920","districtCode":"INM","districtName":"Insurgentes Mixcoac","altitude":null,"nearbyStations":[385,386,417],"location":{"lat":19.375873,"lon":-99.185583},"stationType":"BIKE"},{"id":385,"name":"385 POUSSIN-EMPRESA","address":"385 - Poussin-Empresa","addressNumber":"S\/N","zipCode":"3920","districtCode":"INM","districtName":"Insurgentes Mixcoac","altitude":null,"nearbyStations":[384,386,417],"location":{"lat":19.375651,"lon":-99.18558},"stationType":"BIKE,TPV"},{"id":386,"name":"386 POUSSIN-DONATELLO","address":"386 - Poussin-Donatello","addressNumber":"S\/N","zipCode":"3920","districtCode":"INM","districtName":"Insurgentes Mixcoac","altitude":null,"nearbyStations":[384,385,417],"location":{"lat":19.37484,"lon":-99.185846},"stationType":"BIKE"},{"id":388,"name":"388 VALENCIA-MALAGA","address":"388 - Valencia-Malaga","addressNumber":"S\/N","zipCode":"3920","districtCode":"INM","districtName":"Insurgentes Mixcoac","altitude":null,"nearbyStations":[387,389,390],"location":{"lat":19.373038,"lon":-99.181355},"stationType":"BIKE"},{"id":417,"name":"417 GOYA-AUGUSTO ROD\u00cdN","address":"417 - Goya-Augusto Rod\u00edn","addressNumber":"S\/N","zipCode":"3920","districtCode":"INM","districtName":"Insurgentes Mixcoac","altitude":null,"nearbyStations":[384,385,386],"location":{"lat":19.373262,"lon":-99.184333},"stationType":"BIKE,TPV"},{"id":418,"name":"418 GALICIA-ACTIPAN","address":"418 - Galicia-Actipan","addressNumber":"S\/N","zipCode":"3920","districtCode":"INM","districtName":"Insurgentes Mixcoac","altitude":null,"nearbyStations":[388,417,419],"location":{"lat":19.371152,"lon":-99.183034},"stationType":"BIKE"},{"id":419,"name":"419 ACTIPAN-CADIZ","address":"419 - Actipan-Cadiz","addressNumber":"S\/N","zipCode":"3920","districtCode":"INM","districtName":"Insurgentes Mixcoac","altitude":null,"nearbyStations":[418,420,421],"location":{"lat":19.370606,"lon":-99.181502},"stationType":"BIKE"},{"id":460,"name":"460 JUAN V\u00c1ZQUEZ DE MELLA-HOMERO","address":"460 JUAN V\u00c1ZQUEZ DE MELLA-HOMERO","addressNumber":"S\/R","zipCode":"11510","districtCode":"IRR","districtName":"Irrigaci\u00f3n","altitude":null,"nearbyStations":[198,209,240],"location":{"lat":19.437014,"lon":-99.207932},"stationType":"BIKE"},{"id":461,"name":"461 PRESA DON MART\u00cdN-BOULEVARD MIGUEL DE CERVANTES","address":"461 PRESA DON MART\u00cdN-BOULEVARD MIGUEL DE CERVANTES","addressNumber":"S\/N","zipCode":"11500","districtCode":"IRR","districtName":"Irrigaci\u00f3n","altitude":null,"nearbyStations":[197,240,460],"location":{"lat":19.440106,"lon":-99.210031},"stationType":"BIKE"},{"id":462,"name":"462 PRESA FALC\u00d3N-DANXH\u00d3","address":"462 PRESA FALC\u00d3N-DANXH\u00d3","addressNumber":"S\/N","zipCode":"11500","districtCode":"IRR","districtName":"Irrigaci\u00f3n","altitude":null,"nearbyStations":[197,240,463],"location":{"lat":19.442338,"lon":-99.205198},"stationType":"BIKE"},{"id":355,"name":"355 CALIFORNIA-SACRAMENTO","address":"355 - California-Sacramento","addressNumber":"S\/N","zipCode":"3100","districtCode":"ISB","districtName":"Insurgentes San Borja","altitude":null,"nearbyStations":[345,361],"location":{"lat":19.38205,"lon":-99.173291},"stationType":"BIKE"},{"id":345,"name":"345 MIRAFLORES-PATRICIO SANZ","address":"345 - Miraflores-Patricio Sanz","addressNumber":"S\/N","zipCode":"3100","districtCode":"ISB","districtName":"Insurgentes San Borja","altitude":null,"nearbyStations":[334,335,346],"location":{"lat":19.384498,"lon":-99.172223},"stationType":"BIKE"},{"id":346,"name":"346 SAN FRANCISCO-SANTA MARGARITA","address":"346 - San Francisco-Santa Margarita","addressNumber":"S\/N","zipCode":"3100","districtCode":"ISB","districtName":"Insurgentes San Borja","altitude":null,"nearbyStations":[334,335,345],"location":{"lat":19.385019,"lon":-99.174077},"stationType":"BIKE"},{"id":361,"name":"361 PORFIRIO D\u00cdAZ-CAPUL\u00cdN","address":"361 - Porfirio D\u00edaz-Capul\u00edn","addressNumber":"S\/N","zipCode":"3100","districtCode":"ISB","districtName":"Insurgentes San Borja","altitude":null,"nearbyStations":[354,369,370],"location":{"lat":19.380709,"lon":-99.17508},"stationType":"BIKE"},{"id":261,"name":"261 PASEO DE LA REFORMA - R\u00cdO DE LA PLATA","address":"261 Paseo de la Reforma-R\u00edo de la Plata","addressNumber":"S\/N","zipCode":"06500","districtCode":"JUA","districtName":"Ju\u00e1rez","altitude":null,"nearbyStations":[195,252,253],"location":{"lat":19.42495,"lon":-99.17246},"stationType":"BIKE"},{"id":21,"name":"21 REFORMA-DUBLIN","address":"021 - Reforma - Dublin","addressNumber":"S\/N","zipCode":"06500","districtCode":"JUA","districtName":"Ju\u00e1rez","altitude":null,"nearbyStations":[7,13,14,28],"location":{"lat":19.42472,"lon":-99.17206},"stationType":"BIKE,TPV"},{"id":22,"name":"22 REFORMA-MANCHESTER","address":"022 - Reforma - Manchester","addressNumber":"S\/N","zipCode":"06500","districtCode":"JUA","districtName":"Ju\u00e1rez","altitude":null,"nearbyStations":[14,15,23,28],"location":{"lat":19.424375,"lon":-99.172575},"stationType":"BIKE,TPV"},{"id":23,"name":"23 REFORMA-PRAGA","address":"023 - Reforma - Praga","addressNumber":"S\/N","zipCode":"06500","districtCode":"JUA","districtName":"Ju\u00e1rez","altitude":null,"nearbyStations":[15,16,22],"location":{"lat":19.42517,"lon":-99.17105},"stationType":"BIKE"},{"id":24,"name":"24 REFORMA-VARSOVIA","address":"024 - Reforma- Varsovia","addressNumber":"S\/N","zipCode":"06500","districtCode":"JUA","districtName":"Ju\u00e1rez","altitude":null,"nearbyStations":[16,23],"location":{"lat":19.42647,"lon":-99.16822},"stationType":"BIKE,TPV"},{"id":25,"name":"25 REFORMA-ESTOCOLMO","address":"025 - Reforma - Estocolmo","addressNumber":"S\/N","zipCode":"06500","districtCode":"JUA","districtName":"Ju\u00e1rez","altitude":null,"nearbyStations":[17,18],"location":{"lat":19.427317,"lon":-99.166662},"stationType":"BIKE"},{"id":26,"name":"26 REFORMA-VERSALLES","address":"026 - Reforma - Versalles","addressNumber":"S\/N","zipCode":"06500","districtCode":"JUA","districtName":"Ju\u00e1rez","altitude":null,"nearbyStations":[10],"location":{"lat":19.432685,"lon":-99.154726},"stationType":"BIKE,TPV"},{"id":27,"name":"27 REFORMA-HAVRE","address":"027 - Reforma- Havre","addressNumber":"S\/N","zipCode":"06500","districtCode":"JUA","districtName":"Ju\u00e1rez","altitude":null,"nearbyStations":[19,26,31],"location":{"lat":19.429115,"lon":-99.162614},"stationType":"BIKE,TPV"},{"id":28,"name":"28 TOLEDO-TOKIO","address":"028 - Toledo- Tokio","addressNumber":"S\/N","zipCode":"06500","districtCode":"JUA","districtName":"Ju\u00e1rez","altitude":null,"nearbyStations":[14,21,22],"location":{"lat":19.423542,"lon":-99.172494},"stationType":"BIKE"},{"id":3,"name":"3 REFORMA-INSURGENTES","address":"003 - Reforma - Insurgentes","addressNumber":"S\/N","zipCode":"06500","districtCode":"JUA","districtName":"Ju\u00e1rez","altitude":null,"nearbyStations":[8,20,86],"location":{"lat":19.431655,"lon":-99.158668},"stationType":"BIKE,TPV"},{"id":8,"name":"8 REFORMA-GENERAL PRIM","address":"008 - Reforma - General Prim","addressNumber":"S\/N","zipCode":"06500","districtCode":"JUA","districtName":"Ju\u00e1rez","altitude":null,"nearbyStations":[3,20,86],"location":{"lat":19.431141,"lon":-99.158317},"stationType":"BIKE"},{"id":30,"name":"30 HAMBURGO-GENOVA","address":"030 - Hamburgo - Genova","addressNumber":"S\/N","zipCode":"06500","districtCode":"JUA","districtName":"Ju\u00e1rez","altitude":null,"nearbyStations":[26,34,35],"location":{"lat":19.426442,"lon":-99.164323},"stationType":"BIKE,TPV"},{"id":31,"name":"31 HAMBURGO-INSURGENTES","address":"031 - Hamburgo - Insurgentes","addressNumber":"S\/N","zipCode":"06500","districtCode":"JUA","districtName":"Ju\u00e1rez","altitude":null,"nearbyStations":[19,27,30],"location":{"lat":19.427838,"lon":-99.161193},"stationType":"BIKE"},{"id":32,"name":"32 LONDRES-SEVILLA","address":"032 - Londres - Sevilla","addressNumber":"S\/N","zipCode":"06500","districtCode":"JUA","districtName":"Ju\u00e1rez","altitude":null,"nearbyStations":[22,38,39],"location":{"lat":19.422705,"lon":-99.169922},"stationType":"BIKE"},{"id":33,"name":"E33 LONDRES-FLORENCIA","address":"033 - Londres - Florencia","addressNumber":"S\/N","zipCode":"06500","districtCode":"JUA","districtName":"Ju\u00e1rez","altitude":null,"nearbyStations":[34,35,449],"location":{"lat":19.424234,"lon":-99.166431},"stationType":"ELECTRIC_BIKE"},{"id":34,"name":"34 LIVERPOOL-GENOVA","address":"034 - Liverpool - Genova","addressNumber":"S\/N","zipCode":"05600","districtCode":"JUA","districtName":"Ju\u00e1rez","altitude":null,"nearbyStations":[30,33,35],"location":{"lat":19.424725,"lon":-99.163331},"stationType":"BIKE"},{"id":35,"name":"35 LIVERPOOL-GENOVA","address":"035 - Liverpool - Genova","addressNumber":"S\/N","zipCode":"06500","districtCode":"JUA","districtName":"Ju\u00e1rez","altitude":null,"nearbyStations":[30,34,40],"location":{"lat":19.424674,"lon":-99.163292},"stationType":"BIKE,TPV"},{"id":112,"name":"112 AV. MORELOS-ABRAHAM GONZALEZ","address":"112 - Av. Morelos-Abraham Gonz\u00e1lez","addressNumber":"S\/N","zipCode":"06500","districtCode":"JUA","districtName":"Ju\u00e1rez","altitude":null,"nearbyStations":[98,113,114],"location":{"lat":19.432819,"lon":-99.151734},"stationType":"BIKE"},{"id":113,"name":"113 GENERAL PRIM-VERSALLES","address":"113 - General Prim-Versalles","addressNumber":"S\/N","zipCode":"06500","districtCode":"JUA","districtName":"Ju\u00e1rez","altitude":null,"nearbyStations":[114,116,119],"location":{"lat":19.430369,"lon":-99.154419},"stationType":"BIKE"},{"id":114,"name":"114 LUCERNA-ABRAHAM GONZALEZ ","address":"114 - Lucerna-Abraham Gonz\u00e1lez","addressNumber":"S\/N","zipCode":"06500","districtCode":"JUA","districtName":"Ju\u00e1rez","altitude":null,"nearbyStations":[113,116,119],"location":{"lat":19.428989,"lon":-99.153618},"stationType":"BIKE"},{"id":115,"name":"115 ROMA-DINAMARCA ","address":"115 - Roma-Dinamarca","addressNumber":"S\/N","zipCode":"06500","districtCode":"JUA","districtName":"Ju\u00e1rez","altitude":null,"nearbyStations":[116,117,118],"location":{"lat":19.429947,"lon":-99.159698},"stationType":"BIKE"},{"id":116,"name":"116 LONDRES-ROMA","address":"116 - Londres-Roma","addressNumber":"S\/N","zipCode":"06500","districtCode":"JUA","districtName":"Ju\u00e1rez","altitude":null,"nearbyStations":[115,118,199],"location":{"lat":19.428985,"lon":-99.15664},"stationType":"BIKE"},{"id":117,"name":"117 LONDRES-NAPOLES ","address":"117 - Londres-Napoles","addressNumber":"S\/N","zipCode":"06500","districtCode":"JUA","districtName":"Ju\u00e1rez","altitude":null,"nearbyStations":[116,118,120],"location":{"lat":19.427132,"lon":-99.160369},"stationType":"BIKE"},{"id":118,"name":"118 LIVERPOOL-DINAMARCA","address":"118 - Liverpool-Dinamarca","addressNumber":"S\/N","zipCode":"06500","districtCode":"JUA","districtName":"Ju\u00e1rez","altitude":null,"nearbyStations":[116,117,120],"location":{"lat":19.427114,"lon":-99.158251},"stationType":"BIKE"},{"id":119,"name":"119 TUR\u00cdN-ABRAHAM GONZ\u00c1LEZ","address":"119 - Tur\u00edn-Abraham Gonz\u00e1lez","addressNumber":"S\/N","zipCode":"06600","districtCode":"JUA","districtName":"Ju\u00e1rez","altitude":null,"nearbyStations":[114,118,125],"location":{"lat":19.42679,"lon":-99.15554},"stationType":"BIKE"},{"id":120,"name":"120 MARSELLA-NAPOLES","address":"120 - Marsella-N\u00e1poles","addressNumber":"S\/N","zipCode":"06500","districtCode":"JUA","districtName":"Ju\u00e1rez","altitude":null,"nearbyStations":[117,118,121],"location":{"lat":19.425437,"lon":-99.159458},"stationType":"BIKE"},{"id":121,"name":"121 NIZA-CHAPULTEPEC","address":"121 - Niza-Chapultepec","addressNumber":"S\/N","zipCode":"06500","districtCode":"JUA","districtName":"Ju\u00e1rez","altitude":null,"nearbyStations":[117,120,128],"location":{"lat":19.424137,"lon":-99.161317},"stationType":"BIKE"},{"id":457,"name":"E457 AV. PRADO NORTE-EXPLANADA","address":"457 AV. PRADO NORTE-EXPLANADA","addressNumber":"S\/N","zipCode":"11000","districtCode":"LCH","districtName":"Lomas de Chapultepec Secci\u00f3n V","altitude":null,"nearbyStations":[454,456,459],"location":{"lat":19.42703,"lon":-99.212845},"stationType":"ELECTRIC_BIKE"},{"id":454,"name":"E454 MONTES URALES-MONTE PELVOUX","address":"454 MONTES URALES-MONTE PELVOUX","addressNumber":"S\/N","zipCode":"11000","districtCode":"LCH","districtName":"Lomas de Chapultepec Secci\u00f3n V","altitude":null,"nearbyStations":[453,455,456,457,458,459],"location":{"lat":19.425905,"lon":-99.204236},"stationType":"ELECTRIC_BIKE"},{"id":455,"name":"455 PEDREGAL-FERROCARRIL DE CUERNAVACA","address":"455 PEDREGAL-FERROCARRIL DE CUERNAVACA","addressNumber":"S\/N","zipCode":"11000","districtCode":"LCH","districtName":"Lomas de Chapultepec Secci\u00f3n V","altitude":null,"nearbyStations":[453,456,458],"location":{"lat":19.426308,"lon":-99.203302},"stationType":"BIKE"},{"id":456,"name":"456 ALPES-MONTES ESCANDINAVOS","address":"456 ALPES-MONTES ESCANDINAVOS","addressNumber":"S\/N","zipCode":"11000","districtCode":"LCI","districtName":"Lomas de Chapultepec Secci\u00f3n III","altitude":null,"nearbyStations":[453,455,458],"location":{"lat":19.427517,"lon":-99.208412},"stationType":"BIKE"},{"id":458,"name":"458 MONTES URALES-VOLC\u00c1N","address":"458 MONTES URALES-VOLC\u00c1N","addressNumber":"S\/N","zipCode":"11000","districtCode":"LCI","districtName":"Lomas de Chapultepec Secci\u00f3n III","altitude":null,"nearbyStations":[453,455,456],"location":{"lat":19.428679,"lon":-99.206605},"stationType":"BIKE"},{"id":459,"name":"E459 VOLC\u00c1N-MONTES URALES","address":"459 VOLC\u00c1N-MONTES URALES","addressNumber":"S\/N","zipCode":"11000","districtCode":"LCI","districtName":"Lomas de Chapultepec Secci\u00f3n III","altitude":null,"nearbyStations":[454,457,458],"location":{"lat":19.429243,"lon":-99.207267},"stationType":"ELECTRIC_BIKE"},{"id":404,"name":"404 MIGUEL LAURENT-AVENIDA DIVISI\u00d3N DEL NORTE","address":"404 - Miguel Laurent-Avenida Divisi\u00f3n Del Norte","addressNumber":"S\/N","zipCode":"3650","districtCode":"LEV","districtName":"Letran Valle","altitude":null,"nearbyStations":[402,403,405],"location":{"lat":19.373813,"lon":-99.157387},"stationType":"BIKE"},{"id":405,"name":"405 DIVISI\u00d3N DEL NORTE-MUNICIPIO LIBRE","address":"405 - Divisi\u00f3n Del Norte-Municipio Libre","addressNumber":"S\/N","zipCode":"3303","districtCode":"LEV","districtName":"Letran Valle","altitude":null,"nearbyStations":[402,403,404],"location":{"lat":19.370619,"lon":-99.156626},"stationType":"BIKE,TPV"},{"id":374,"name":"374 PIT\u00c1GORAS-PILARES","address":"374 - Anax\u00e1goras-Pilares","addressNumber":"S\/N","zipCode":"3100","districtCode":"LEV","districtName":"Letran Valle","altitude":null,"nearbyStations":[359,375,376],"location":{"lat":19.376964,"lon":-99.161116},"stationType":"BIKE,TPV"},{"id":375,"name":"375 TENAYUCA-DIVISI\u00d3N DEL NORTE","address":"375 - Tenayuca-Divisi\u00f3n Del Norte","addressNumber":"S\/N","zipCode":"3650","districtCode":"LEV","districtName":"Letran Valle","altitude":null,"nearbyStations":[359,374,376],"location":{"lat":19.376865,"lon":-99.158818},"stationType":"BIKE"},{"id":376,"name":"376 PIT\u00c1GORAS-AV. UNIVERSIDAD","address":"376 - Pit\u00e1goras-Av. Universidad","addressNumber":"S\/N","zipCode":"3650","districtCode":"LEV","districtName":"Letran Valle","altitude":null,"nearbyStations":[374,375,377],"location":{"lat":19.375442,"lon":-99.161595},"stationType":"BIKE"},{"id":453,"name":"453 PEDREGAL-TEAPA","address":"453 PEDREGAL-TEAPA","addressNumber":"S\/N","zipCode":"11000","districtCode":"MDR","districtName":"Molino del Rey","altitude":null,"nearbyStations":[455,456,458],"location":{"lat":19.424842,"lon":-99.203739},"stationType":"BIKE"},{"id":334,"name":"334 NUEVA YORK-AV. INSURGENTES","address":"334 - Nuerva York-Av. Insurgentes","addressNumber":"S\/N","zipCode":"3840","districtCode":"NAP","districtName":"N\u00e1poles","altitude":null,"nearbyStations":[326,335,346],"location":{"lat":19.386568,"lon":-99.175089},"stationType":"BIKE"},{"id":348,"name":"348 INDIANA-AVENIDA SAN ANTONIO","address":"348 - Indiana-Avenida San Antonio","addressNumber":"S\/N","zipCode":"3710","districtCode":"NAP","districtName":"N\u00e1poles","altitude":null,"nearbyStations":[347,349,350],"location":{"lat":19.385365,"lon":-99.178216},"stationType":"BIKE"},{"id":313,"name":"313 PENNSYLVANIA-OKLAHOMA","address":"313 - Pennsylvania-Oklahoma","addressNumber":"S\/N","zipCode":"3810","districtCode":"NAP","districtName":"N\u00e1poles","altitude":null,"nearbyStations":[308,309,314],"location":{"lat":19.391431,"lon":-99.178989},"stationType":"BIKE"},{"id":314,"name":"314 NUERVA YORK-LOUISIANA","address":"314 - Nuerva York-Louisiana","addressNumber":"S\/N","zipCode":"3810","districtCode":"NAP","districtName":"N\u00e1poles","altitude":null,"nearbyStations":[307,313,327],"location":{"lat":19.391647,"lon":-99.177331},"stationType":"BIKE"},{"id":315,"name":"315 ALABAMA-MONTANA","address":"315 - Alabama-Montana","addressNumber":"S\/N","zipCode":"3810","districtCode":"NAP","districtName":"N\u00e1poles","altitude":null,"nearbyStations":[301,302,316],"location":{"lat":19.391472,"lon":-99.1736},"stationType":"BIKE"},{"id":327,"name":"E327 GEORGIA -PENNSYLVANIA","address":"327 - Georgia -Pennsylvania","addressNumber":"S\/N","zipCode":"3810","districtCode":"NAP","districtName":"N\u00e1poles","altitude":null,"nearbyStations":[300,314,326],"location":{"lat":19.38885,"lon":-99.17772},"stationType":"ELECTRIC_BIKE"},{"id":284,"name":"284 DAKOTA-VERMONT","address":"284 - Dakota-Vermont","addressNumber":"S\/N","zipCode":"3810","districtCode":"NAP","districtName":"N\u00e1poles","altitude":null,"nearbyStations":[289,290,291],"location":{"lat":19.397693,"lon":-99.172981},"stationType":"BIKE"},{"id":289,"name":"289 CHICAGO-YOSEMITE","address":"289 - Chicago-Yosemite","addressNumber":"S\/N","zipCode":"3810","districtCode":"NAP","districtName":"N\u00e1poles","altitude":null,"nearbyStations":[284,290,304],"location":{"lat":19.397308,"lon":-99.174548},"stationType":"BIKE"},{"id":290,"name":"290 YOSEMITE-COLORADO","address":"290 - Yosemite-Colorado","addressNumber":"S\/N","zipCode":"3810","districtCode":"NAP","districtName":"N\u00e1poles","altitude":null,"nearbyStations":[284,289,303],"location":{"lat":19.396333,"lon":-99.172667},"stationType":"BIKE"},{"id":303,"name":"303 MONTESITO-AV. INSURGENTES","address":"303 - Montesito-Av. Insurgentes","addressNumber":"S\/N","zipCode":"3810","districtCode":"NAP","districtName":"N\u00e1poles","altitude":null,"nearbyStations":[301,302,304],"location":{"lat":19.394842,"lon":-99.173025},"stationType":"BIKE,TPV"},{"id":304,"name":"304 MONTESITO-DAKOTA","address":"304 - Montesito-Dakota","addressNumber":"S\/N","zipCode":"3810","districtCode":"NAP","districtName":"N\u00e1poles","altitude":null,"nearbyStations":[290,303,305],"location":{"lat":19.395043,"lon":-99.173821},"stationType":"BIKE"},{"id":305,"name":"305 AVENIDA DEL PARQUE-ARIZONA","address":"305 - Avenida Del Parque-Arizona","addressNumber":"S\/N","zipCode":"3810","districtCode":"NAP","districtName":"N\u00e1poles","altitude":null,"nearbyStations":[304,306,307],"location":{"lat":19.394693,"lon":-99.175531},"stationType":"BIKE,TPV"},{"id":306,"name":"306 DAKOTA-FILADELFIA","address":"306 - Dakota-Filadelfia","addressNumber":"S\/N","zipCode":"3810","districtCode":"NAP","districtName":"N\u00e1poles","altitude":null,"nearbyStations":[305,307,308],"location":{"lat":19.393699,"lon":-99.175664},"stationType":"BIKE,TPV"},{"id":307,"name":"307 MINESOTA-DAKOTA","address":"307 - Minesota-Dakota","addressNumber":"S\/N","zipCode":"3810","districtCode":"NAP","districtName":"N\u00e1poles","altitude":null,"nearbyStations":[305,306,308],"location":{"lat":19.393701,"lon":-99.175834},"stationType":"BIKE"},{"id":308,"name":"308 NUEVA YORK-ARIZONA","address":"308 - Nueva York-Arizona","addressNumber":"S\/N","zipCode":"3810","districtCode":"NAP","districtName":"N\u00e1poles","altitude":null,"nearbyStations":[306,307,309],"location":{"lat":19.393594,"lon":-99.178072},"stationType":"BIKE"},{"id":309,"name":"309 PENNSYLVANIA-ARIZONA","address":"309 - Pennsylvania-Arizona","addressNumber":"S\/N","zipCode":"3810","districtCode":"NAP","districtName":"N\u00e1poles","altitude":null,"nearbyStations":[308,310,313],"location":{"lat":19.393162,"lon":-99.17956},"stationType":"BIKE"},{"id":295,"name":"295 ANAX\u00c1GORAS-EJE 4 SUR XOLA","address":"295 - Anax\u00e1goras-Eje 4 Sur Xola","addressNumber":"S\/N","zipCode":"3020","districtCode":"NAR","districtName":"Narvarte Poniente","altitude":null,"nearbyStations":[281,296,297],"location":{"lat":19.396328,"lon":-99.156871},"stationType":"BIKE,TPV"},{"id":296,"name":"E296 DIAGONAL SAN ANTONIO-ENRIQUE R\u00c9BSAMEN","address":"296 - Diagonal San Antonio-Enrique R\u00e9bsamen","addressNumber":"S\/N","zipCode":"3020","districtCode":"NAR","districtName":"Narvarte Poniente","altitude":null,"nearbyStations":[295,297,300],"location":{"lat":19.394283,"lon":-99.158756},"stationType":"ELECTRIC_BIKE"},{"id":297,"name":"297 DIAGONAL SAN ANTONIO-ENRIQUE R\u00c9BSAMEN","address":"297 - Diagonal San Antonio-Enrique R\u00e9bsamen","addressNumber":"S\/N","zipCode":"3020","districtCode":"NAR","districtName":"Narvarte Poniente","altitude":null,"nearbyStations":[295,296,320],"location":{"lat":19.394412,"lon":-99.158907},"stationType":"BIKE"},{"id":320,"name":"320 ENRIQUE R\u00c9BSAMEN-LUZ SAVI\u00d1ON","address":"320 - Enrique R\u00e9bsamen-Luz Savi\u00f1on","addressNumber":"S\/N","zipCode":"3020","districtCode":"NAR","districtName":"Narvarte Poniente","altitude":null,"nearbyStations":[296,297,319],"location":{"lat":19.391323,"lon":-99.15936},"stationType":"BIKE"},{"id":321,"name":"321 TORRES ADALID-ANAX\u00c1GORAS","address":"321 - Torres Adalid-Anax\u00e1goras","addressNumber":"S\/N","zipCode":"3020","districtCode":"NAR","districtName":"Narvarte Poniente","altitude":null,"nearbyStations":[320,322,340],"location":{"lat":19.389477,"lon":-99.157513},"stationType":"BIKE"},{"id":322,"name":"322 HERIBERTO FR\u00cdAS-CONCEPCI\u00d3N BEISTEGUI","address":"322 - Heriberto Fr\u00edas-Concepci\u00f3n Beistegui","addressNumber":"S\/N","zipCode":"3020","districtCode":"NAR","districtName":"Narvarte Poniente","altitude":null,"nearbyStations":[321,323,339],"location":{"lat":19.388528,"lon":-99.160616},"stationType":"BIKE"},{"id":280,"name":"280 ANAX\u00c1GORAS-OBRERO MUNDIAL","address":"280 - Anax\u00e1goras-Obrero Mundial","addressNumber":"S\/N","zipCode":"3020","districtCode":"NAR","districtName":"Narvarte Poniente","altitude":null,"nearbyStations":[276,277,281],"location":{"lat":19.4015,"lon":-99.156406},"stationType":"BIKE,TPV"},{"id":281,"name":"281 PIT\u00c1GORAS-LA MORENA","address":"281 - Pit\u00e1goras-La Morena","addressNumber":"S\/N","zipCode":"3020","districtCode":"NAR","districtName":"Narvarte Poniente","altitude":null,"nearbyStations":[276,280,295],"location":{"lat":19.398532,"lon":-99.157308},"stationType":"BIKE"},{"id":339,"name":"339 ENRIQUE R\u00c9BSAMEN-AVENIDA EUGENIA","address":"339 - Enrique R\u00e9bsamen-Avenida Eugenia","addressNumber":"S\/N","zipCode":"3020","districtCode":"NAR","districtName":"Narvarte Poniente","altitude":null,"nearbyStations":[322,340,343],"location":{"lat":19.386032,"lon":-99.160548},"stationType":"BIKE"},{"id":340,"name":"340 ANAX\u00c1GORAS-AVENIDA EUGENIA","address":"340 - Anax\u00e1goras-Avenida Eugenia","addressNumber":"S\/N","zipCode":"3020","districtCode":"NAR","districtName":"Narvarte Poniente","altitude":null,"nearbyStations":[339,341,343],"location":{"lat":19.385571,"lon":-99.158188},"stationType":"BIKE,TPV"},{"id":341,"name":"341 SAN BORJA-AVENIDA CUAUHTEMOC","address":"341 - San Borja-Avenida Cuauhtemoc","addressNumber":"S\/N","zipCode":"3020","districtCode":"NAR","districtName":"Narvarte Poniente","altitude":null,"nearbyStations":[340,343,364],"location":{"lat":19.382851,"lon":-99.158204},"stationType":"BIKE"},{"id":342,"name":"342 ANAX\u00c1GORAS-ANGEL URRAZA EJE 6 SUR","address":"342 - Anax\u00e1goras-Angel Urraza Eje 6 Sur","addressNumber":"S\/N","zipCode":"3020","districtCode":"NAR","districtName":"Narvarte Poniente","altitude":null,"nearbyStations":[341,344,359],"location":{"lat":19.381076,"lon":-99.159455},"stationType":"BIKE"},{"id":343,"name":"343 ENRIQUE R\u00c9BSAMEN-DIVISI\u00d3N DEL NORTE","address":"343 - Enrique R\u00e9bsamen-Divisi\u00f3n Del Norte","addressNumber":"S\/N","zipCode":"3100","districtCode":"NAR","districtName":"Narvarte Poniente","altitude":null,"nearbyStations":[338,341,344],"location":{"lat":19.384099,"lon":-99.160826},"stationType":"BIKE"},{"id":354,"name":"354 BOSTON-AV. INSURGENTES","address":"354 - Boston-Av. Insurgentes","addressNumber":"S\/N","zipCode":"3720","districtCode":"NBU","districtName":"Noche Buena","altitude":null,"nearbyStations":[353,361,369],"location":{"lat":19.381665,"lon":-99.176685},"stationType":"BIKE"},{"id":369,"name":"369 PORFIRIO D\u00cdAZ-AV. INSURGENTES","address":"369 - Porfirio D\u00edaz-Av. Insurgentes","addressNumber":"S\/N","zipCode":"3740","districtCode":"NBU","districtName":"Noche Buena","altitude":null,"nearbyStations":[367,368],"location":{"lat":19.379884,"lon":-99.177478},"stationType":"BIKE,TPV"},{"id":366,"name":"366 PORFIRIO D\u00cdAZ-AUGUSTO ROD\u00cdN","address":"366 - Porfirio D\u00edaz-Augusto Rod\u00edn","addressNumber":"S\/N","zipCode":"3740","districtCode":"NBU","districtName":"Noche Buena","altitude":null,"nearbyStations":[362,367,368],"location":{"lat":19.378345,"lon":-99.181973},"stationType":"BIKE"},{"id":367,"name":"367 BOSTON -AUGUSTO ROD\u00cdN","address":"367 - Boston -Augusto Rod\u00edn","addressNumber":"S\/N","zipCode":"3720","districtCode":"NBU","districtName":"Noche Buena","altitude":null,"nearbyStations":[362,363,366],"location":{"lat":19.37946,"lon":-99.181632},"stationType":"BIKE"},{"id":276,"name":"276 ANAX\u00c1GORAS-OBRERO MUNDIAL","address":"276 - Anax\u00e1goras-Obrero Mundial","addressNumber":"S\/N","zipCode":"3020","districtCode":"PNA","districtName":"Piedad Narvarte","altitude":null,"nearbyStations":[277,280,281],"location":{"lat":19.401986,"lon":-99.156366},"stationType":"BIKE"},{"id":277,"name":"277 AMPLIACI\u00d3N TONAL\u00c1-OBRERO MUNDIAL","address":"277 - Ampliaci\u00f3n Tonal\u00e1-Obrero Mundial","addressNumber":"S\/N","zipCode":"3020","districtCode":"PNA","districtName":"Piedad Narvarte","altitude":null,"nearbyStations":[165,276,280],"location":{"lat":19.401807,"lon":-99.15909},"stationType":"BIKE"},{"id":36,"name":"36 PUEBLA-VERACRUZ","address":"036 - Puebla - Veracruz","addressNumber":"S\/N","zipCode":"06140","districtCode":"PNA","districtName":"Piedad Narvarte","altitude":null,"nearbyStations":[37,41,44],"location":{"lat":19.419725,"lon":-99.175778},"stationType":"BIKE,TPV"},{"id":198,"name":"198 S\u00d3CRATES-EJERCITO NACIONAL ","address":"198 - S\u00f3crates-Ejercito Nacional","addressNumber":"S\/N","zipCode":"11550","districtCode":"POL","districtName":"Polanco","altitude":null,"nearbyStations":[240,241],"location":{"lat":19.438168,"lon":-99.203888},"stationType":"BIKE,TPV"},{"id":196,"name":"196 LAGO TANGANICA-AV. EJERCITO NACIONAL","address":"196 - Lago Tanganica- Av. Ej\u00e9rcito Nacional","addressNumber":"S\/N","zipCode":"11510","districtCode":"POL","districtName":"Polanco","altitude":null,"nearbyStations":[204,244,245],"location":{"lat":19.438349,"lon":-99.192904},"stationType":"BIKE"},{"id":200,"name":"200 EMERSON-AV. EJERCITO NACIONAL","address":"200 - Emerson-Av. Ej\u00e9rcito Nacional","addressNumber":"S\/N","zipCode":"11510","districtCode":"POL","districtName":"Polanco","altitude":null,"nearbyStations":[201,204,245],"location":{"lat":19.437596,"lon":-99.188785},"stationType":"BIKE"},{"id":201,"name":"201 LOPE DE VEGA-EJERCITO NACIONAL ","address":"201 - Lope de Vega-Ej\u00e9rcito Nacional","addressNumber":"S\/N","zipCode":"11510","districtCode":"POL","districtName":"Polanco","altitude":null,"nearbyStations":[200,205,245],"location":{"lat":19.437431,"lon":-99.187215},"stationType":"BIKE"},{"id":202,"name":"202 CALDERON DE LA BARCA-AV. HOMERO","address":"202 - Calder\u00f3n de la Barca-Av. Homero","addressNumber":"S\/N","zipCode":"11510","districtCode":"POL","districtName":"Polanco","altitude":null,"nearbyStations":[199,206,215],"location":{"lat":19.4362368,"lon":-99.1988982},"stationType":"BIKE"},{"id":203,"name":"203 TENNYSON-AV. HOMERO","address":"203 - Tennyson-Av. Homero","addressNumber":"S\/N","zipCode":"11510","districtCode":"POL","districtName":"Polanco","altitude":null,"nearbyStations":[196,204,210],"location":{"lat":19.435985,"lon":-99.194832},"stationType":"BIKE"},{"id":204,"name":"204 TEMISTOCLES-HOMERO","address":"204 - Temistocles-Homero","addressNumber":"S\/N","zipCode":"11510","districtCode":"POL","districtName":"Polanco","altitude":null,"nearbyStations":[196,200,245],"location":{"lat":19.435882,"lon":-99.19152},"stationType":"BIKE"},{"id":205,"name":"205 TAINE-HOMERO","address":"205 - Taine-Homero","addressNumber":"S\/N","zipCode":"11510","districtCode":"POL","districtName":"Polanco","altitude":null,"nearbyStations":[201,207,217],"location":{"lat":19.435525,"lon":-99.184713},"stationType":"BIKE"},{"id":206,"name":"206 MOLIERE-HOMERO ","address":"206 - Moliere-Homero","addressNumber":"S\/N","zipCode":"11550","districtCode":"POL","districtName":"Polanco","altitude":null,"nearbyStations":[202,214,215],"location":{"lat":19.435798,"lon":-99.201419},"stationType":"BIKE,TPV"},{"id":207,"name":"207 TASSO-HOMERO ","address":"207 - Tasso-Homero","addressNumber":"S\/N","zipCode":"11510","districtCode":"POL","districtName":"Polanco","altitude":null,"nearbyStations":[205,217,226],"location":{"lat":19.434861,"lon":-99.183322},"stationType":"BIKE"},{"id":208,"name":"208 HESIODO-LAMARTINE ","address":"208 - Hesiodo-Lamartine","addressNumber":"S\/N","zipCode":"11510","districtCode":"POL","districtName":"Polanco","altitude":null,"nearbyStations":[211,212,218],"location":{"lat":19.434182,"lon":-99.189835},"stationType":"BIKE"},{"id":209,"name":"209 SOLON-HORACIO ","address":"209 - Sol\u00f3n-Horacio","addressNumber":"S\/N","zipCode":"11510","districtCode":"POL","districtName":"Polanco","altitude":null,"nearbyStations":[213,214,219],"location":{"lat":19.435478,"lon":-99.206359},"stationType":"BIKE"},{"id":210,"name":"210 EUGENIO SUE-HORACIO ","address":"210 Eugenio Sue-Horacio","addressNumber":"S\/N","zipCode":"11550","districtCode":"POL","districtName":"Polanco","altitude":null,"nearbyStations":[203,204,216],"location":{"lat":19.434076,"lon":-99.194091},"stationType":"BIKE"},{"id":211,"name":"211 NEWTON-HORACIO","address":"211 - Newton-Horacio","addressNumber":"S\/N","zipCode":"11510","districtCode":"POL","districtName":"Polanco","altitude":null,"nearbyStations":[212,218],"location":{"lat":19.433607,"lon":-99.188528},"stationType":"BIKE"},{"id":212,"name":"212 HEGEL-HORACIO ","address":"212 - Hegel-Horacio","addressNumber":"S\/N","zipCode":"11510","districtCode":"POL","districtName":"Polanco","altitude":null,"nearbyStations":[211,218,224],"location":{"lat":19.433567,"lon":-99.188096},"stationType":"BIKE,TPV"},{"id":213,"name":"213 SOL\u00d3N-CICER\u00d3N","address":"213 - Sol\u00f3n-Cicer\u00f3n","addressNumber":"S\/N","zipCode":"11510","districtCode":"POL","districtName":"Polanco","altitude":null,"nearbyStations":[209,214,219],"location":{"lat":19.43432,"lon":-99.20632},"stationType":"BIKE"},{"id":214,"name":"214 PLAT\u00d3N-HORACIO","address":"214 - Plat\u00f3n-Horacio","addressNumber":"S\/N","zipCode":"11550","districtCode":"POL","districtName":"Polanco","altitude":null,"nearbyStations":[206,209,215],"location":{"lat":19.434353,"lon":-99.20322},"stationType":"BIKE"},{"id":215,"name":"215 EDGAR ALAN POE-HORACIO","address":"215 - Edgar Alan Poe-Horacio","addressNumber":"S\/N","zipCode":"11510","districtCode":"POL","districtName":"Polanco","altitude":null,"nearbyStations":[206,214,221],"location":{"lat":19.43384,"lon":-99.19968},"stationType":"BIKE"},{"id":216,"name":"216 ALEJANDRO DUMAS-HORACIO ","address":"216 - Alejandro Dumas-Horacio","addressNumber":"S\/N","zipCode":"11510","districtCode":"POL","districtName":"Polanco","altitude":null,"nearbyStations":[210,222],"location":{"lat":19.433419,"lon":-99.195746},"stationType":"BIKE,TPV"},{"id":217,"name":"217 EULER-AV. HORACIO ","address":"217 - Euler-Horacio","addressNumber":"S\/N","zipCode":"11510","districtCode":"POL","districtName":"Polanco","altitude":null,"nearbyStations":[207,225,226],"location":{"lat":19.432888,"lon":-99.183605},"stationType":"BIKE,TPV"},{"id":218,"name":"218 HEGEL-IBARBOUROU ","address":"218 - Hegel-Ibarbourou","addressNumber":"S\/N","zipCode":"11510","districtCode":"POL","districtName":"Polanco","altitude":null,"nearbyStations":[211,212,224],"location":{"lat":19.432451,"lon":-99.188033},"stationType":"BIKE"},{"id":219,"name":"219 ESOPO-FC DE CUERNAVACA","address":"219 - Esopo-FC de Cuernavaca","addressNumber":"S\/N","zipCode":"11510","districtCode":"POL","districtName":"Polanco","altitude":null,"nearbyStations":[213,220,227],"location":{"lat":19.433542,"lon":-99.207808},"stationType":"BIKE"},{"id":220,"name":"220 PLINIO-PRESIDENTE MASARYK ","address":"220 - Plino-Presidente Masaryk","addressNumber":"S\/N","zipCode":"11510","districtCode":"POL","districtName":"Polanco","altitude":null,"nearbyStations":[213,219,227],"location":{"lat":19.432655,"lon":-99.205727},"stationType":"BIKE"},{"id":221,"name":"221 EMILIO CASTELAR-PRESIDENTE MASARYK ","address":"221 - Emilio Castelar-Presidente Masaryk","addressNumber":"S\/N","zipCode":"11510","districtCode":"POL","districtName":"Polanco","altitude":null,"nearbyStations":[215,230,231],"location":{"lat":19.431799,"lon":-99.201565},"stationType":"BIKE,TPV"},{"id":222,"name":"E222 ALEJANDRO DUMAS-PRESIDENTE MASARYK","address":"222 - Alejandro Dumas-Presidente Masarik","addressNumber":"S\/N","zipCode":"11510","districtCode":"POL","districtName":"Polanco","altitude":null,"nearbyStations":[233,241,247],"location":{"lat":19.431417,"lon":-99.195774},"stationType":"ELECTRIC_BIKE"},{"id":223,"name":"223 NEWTON-PRESIDENTE MASARYK ","address":"223 - Newton-Presidente Masarik","addressNumber":"S\/N","zipCode":"11550","districtCode":"POL","districtName":"Polanco","altitude":null,"nearbyStations":[222,224,231],"location":{"lat":19.431242,"lon":-99.191613},"stationType":"BIKE,TPV"},{"id":224,"name":"224 HEGEL-PRESIDENTE MASARYK","address":"224 - Hegel-Presidente Masaryk","addressNumber":"S\/N","zipCode":"11510","districtCode":"POL","districtName":"Polanco","altitude":null,"nearbyStations":[212,218,225],"location":{"lat":19.431255,"lon":-99.188065},"stationType":"BIKE"},{"id":225,"name":"225 PETRARCA-PRESIDENTE MASARYK","address":"225 - Petrarca-Presidente Masaryk","addressNumber":"S\/N","zipCode":"11510","districtCode":"POL","districtName":"Polanco","altitude":null,"nearbyStations":[224,226,232],"location":{"lat":19.431172,"lon":-99.185612},"stationType":"BIKE"},{"id":226,"name":"226 WALLON-PRESIDENTE MASARYK","address":"226 - Wallon-Presidente Masaryk","addressNumber":"S\/N","zipCode":"11511","districtCode":"POL","districtName":"Polanco","altitude":null,"nearbyStations":[217,239,247],"location":{"lat":19.431033,"lon":-99.18222},"stationType":"BIKE"},{"id":227,"name":"227 CAMPOS EL\u00cdSEOS-PERIF\u00c9RICO","address":"227 - Campos El\u00edseos-Perif\u00e9rico","addressNumber":"S\/N","zipCode":"11550","districtCode":"POL","districtName":"Polanco","altitude":null,"nearbyStations":[213,219,220],"location":{"lat":19.431791,"lon":-99.207373},"stationType":"BIKE"},{"id":228,"name":"228 CAMPOS EL\u00cdSEOS-JEAN DE LA FONTAINE","address":"228 - Campos El\u00edseos-Jean de La fontaine","addressNumber":"S\/N","zipCode":"11510","districtCode":"POL","districtName":"Polanco","altitude":null,"nearbyStations":[230,233,235],"location":{"lat":19.427705,"lon":-99.19912},"stationType":"BIKE,TPV"},{"id":229,"name":"229 DICKENS-SENECA","address":"229 - Dickens-Seneca","addressNumber":"S\/N","zipCode":"11510","districtCode":"POL","districtName":"Polanco","altitude":null,"nearbyStations":[221,235,236],"location":{"lat":19.430515,"lon":-99.203331},"stationType":"BIKE"},{"id":230,"name":"230 EDGAR ALAN POE-DICKENS","address":"230 - Edgar Alan Poe-Dickens","addressNumber":"S\/N","zipCode":"11510","districtCode":"POL","districtName":"Polanco","altitude":null,"nearbyStations":[221,235,236],"location":{"lat":19.430098,"lon":-99.200074},"stationType":"BIKE"},{"id":231,"name":"231 NEWTON-ARISTOTELES ","address":"231 - Newton-Aristoteles","addressNumber":"S\/N","zipCode":"11510","districtCode":"POL","districtName":"Polanco","altitude":null,"nearbyStations":[222,223,234],"location":{"lat":19.42977,"lon":-99.19349},"stationType":"BIKE"},{"id":232,"name":"232 TAINE-RUBEN DAR\u00cdO ","address":"232 - Taine -  Rub\u00e9n Dar\u00edo","addressNumber":"S\/N","zipCode":"11550","districtCode":"POL","districtName":"Polanco","altitude":null,"nearbyStations":[224,225,226],"location":{"lat":19.42894,"lon":-99.185389},"stationType":"BIKE"},{"id":233,"name":"233 JULIO VERNE-LUIS G. URBINA ","address":"233 - Julio Verne-Luis G. Urbina","addressNumber":"S\/N","zipCode":"11510","districtCode":"POL","districtName":"Polanco","altitude":null,"nearbyStations":[222,230,231],"location":{"lat":19.429314,"lon":-99.196965},"stationType":"BIKE,TPV"},{"id":234,"name":"234 TRES PICOS-ARQU\u00cdMIDES ","address":"234 - Tres Picos-Arqu\u00edmides","addressNumber":"S\/N","zipCode":"11550","districtCode":"POL","districtName":"Polanco","altitude":null,"nearbyStations":[192,193,231],"location":{"lat":19.42783,"lon":-99.191539},"stationType":"BIKE"},{"id":235,"name":"235 CAMPOS ELISEOS-MOLIERE ","address":"235 - Campos Eliseos-Moliere","addressNumber":"S\/N","zipCode":"11550","districtCode":"POL","districtName":"Polanco","altitude":null,"nearbyStations":[229,230,236],"location":{"lat":19.42933,"lon":-99.20218},"stationType":"BIKE"},{"id":236,"name":"236 CAMPOS ELISEOS-MOLIERE ","address":"236 - Campos Eliseos-Moliere","addressNumber":"S\/N","zipCode":"11550","districtCode":"POL","districtName":"Polanco","altitude":null,"nearbyStations":[229,230,235],"location":{"lat":19.42944,"lon":-99.20243},"stationType":"BIKE"},{"id":237,"name":"237 ANDR\u00c9S BELLO-ELLIOT ","address":"237 - Andr\u00e9s Bello-Elliot","addressNumber":"S\/N","zipCode":"11550","districtCode":"POL","districtName":"Polanco","altitude":null,"nearbyStations":[193,234,238],"location":{"lat":19.426744,"lon":-99.193986},"stationType":"BIKE,TPV"},{"id":238,"name":"238 ANDR\u00c9S BELLO-ELLIOT ","address":"238 - Andr\u00e9s Bello-Elliot","addressNumber":"S\/N","zipCode":"11550","districtCode":"POL","districtName":"Polanco","altitude":null,"nearbyStations":[193,234,237],"location":{"lat":19.426765,"lon":-99.193752},"stationType":"BIKE"},{"id":239,"name":"239 RINCON DEL BOSQUE-RUBEN DAR\u00cdO ","address":"239 - Rincon del Bosque-Ruben Dario","addressNumber":"S\/N","zipCode":"11510","districtCode":"POL","districtName":"Polanco","altitude":null,"nearbyStations":[226,247,250],"location":{"lat":19.430153,"lon":-99.181355},"stationType":"BIKE"},{"id":451,"name":"451 CAMPOS EL\u00cdSEOS-GOLDSMITH","address":"451 CAMPOS EL\u00cdSEOS-GOLDSMITH","addressNumber":"S\/N","zipCode":"11550","districtCode":"POL","districtName":"Polanco","altitude":null,"nearbyStations":[451],"location":{"lat":19.42902,"lon":-99.201322},"stationType":"BIKE"},{"id":407,"name":"407 PROL. XOCHICALCO-GENERAL EMILIANO ZAPATA","address":"407 - Prolongaci\u00f3n Xochicalco-General Emiliano Zapat","addressNumber":"S\/N","zipCode":"3320","districtCode":"REE","districtName":"Residencial Emperadores","altitude":null,"nearbyStations":[406,408,410],"location":{"lat":19.367294,"lon":-99.158694},"stationType":"BIKE"},{"id":408,"name":"408 PROLONGACI\u00d3N PET\u00c9N-GENERAL EMILIANO ZAPATA","address":"408 - Prolongaci\u00f3n Pet\u00e9n-General Emiliano Zapata","addressNumber":"S\/N","zipCode":"3320","districtCode":"REE","districtName":"Residencial Emperadores","altitude":null,"nearbyStations":[407,409,410],"location":{"lat":19.36677,"lon":-99.156843},"stationType":"BIKE"},{"id":449,"name":"E449 ACAPULCO-PUEBLA","address":"449 ACAPULCO-PUEBLA","addressNumber":"S\/N","zipCode":"06700","districtCode":"R-N","districtName":"Roma Norte","altitude":null,"nearbyStations":[33,36,37,139],"location":{"lat":19.42018,"lon":-99.174393},"stationType":"ELECTRIC_BIKE"},{"id":42,"name":"42 SINALOA-VALLADOLID","address":"042 - Sinaloa - Valladolid","addressNumber":"S\/N","zipCode":"06700","districtCode":"R-N","districtName":"Roma Norte","altitude":null,"nearbyStations":[39,47,48,51],"location":{"lat":19.420472,"lon":-99.168238},"stationType":"BIKE"},{"id":37,"name":"37 GUADALAJARA-PUEBLA","address":"037 - Guadalajara - Puebla","addressNumber":"S\/N","zipCode":"06700","districtCode":"R-N","districtName":"Roma Norte","altitude":null,"nearbyStations":[28,38,45],"location":{"lat":19.420419,"lon":-99.172676},"stationType":"BIKE"},{"id":38,"name":"38 COZUMEL-PUEBLA","address":"038 - Cozumel - PUEBLA","addressNumber":"S\/N","zipCode":"06700","districtCode":"R-N","districtName":"Roma Norte","altitude":null,"nearbyStations":[28,32,37],"location":{"lat":19.420801,"lon":-99.171407},"stationType":"BIKE"},{"id":39,"name":"39 PUEBLA-MEDELL\u00cdN","address":"039 - Puebla - Medell\u00edn","addressNumber":"S\/N","zipCode":"06700","districtCode":"R-N","districtName":"Roma Norte","altitude":null,"nearbyStations":[33,42,48],"location":{"lat":19.421759,"lon":-99.16694},"stationType":"BIKE"},{"id":40,"name":"40 OAXACA-PUEBLA","address":"040 - Oaxaca - Puebla","addressNumber":"S\/N","zipCode":"06700","districtCode":"R-N","districtName":"Roma Norte","altitude":null,"nearbyStations":[35,42],"location":{"lat":19.42223,"lon":-99.164297},"stationType":"BIKE"},{"id":56,"name":"56 ALVARO OBREGON-MEDELLIN","address":"056 - Alvaro Obreg\u00f3n - Medellin","addressNumber":"S\/N","zipCode":"06700","districtCode":"R-N","districtName":"Roma Norte","altitude":null,"nearbyStations":[47,51,55,59],"location":{"lat":19.416959,"lon":-99.165702},"stationType":"BIKE"},{"id":51,"name":"51 COLIMA-OAXACA","address":"051 - Colima - Oaxaca","addressNumber":"S\/N","zipCode":"06700","districtCode":"R-N","districtName":"Roma Norte","altitude":null,"nearbyStations":[46,47,55,58],"location":{"lat":19.417995,"lon":-99.168248},"stationType":"BIKE"},{"id":44,"name":"44 DURANGO-VERACRUZ","address":"044 - Durango - Veracruz","addressNumber":"S\/N","zipCode":"06140","districtCode":"R-N","districtName":"Roma Norte","altitude":null,"nearbyStations":[36,41,49,50],"location":{"lat":19.418057,"lon":-99.174761},"stationType":"BIKE"},{"id":45,"name":"45 DURANGO-SONORA","address":"045 - Durango - Sonora","addressNumber":"S\/N","zipCode":"06700","districtCode":"R-N","districtName":"Roma Norte","altitude":null,"nearbyStations":[37,38,41,46],"location":{"lat":19.418649,"lon":-99.172127},"stationType":"BIKE,TPV"},{"id":46,"name":"46 DURANGO-SALAMANCA","address":"046 - Durango - Salamanca","addressNumber":"S\/N","zipCode":"06700","districtCode":"R-N","districtName":"Roma Norte","altitude":null,"nearbyStations":[42,45,51,54],"location":{"lat":19.419214,"lon":-99.169732},"stationType":"BIKE"},{"id":47,"name":"47 GLORIETA CIBELES-OAXACA","address":"047 - Glorieta Cibeles - Oaxaca","addressNumber":"S\/N","zipCode":"06700","districtCode":"R-N","districtName":"Roma Norte","altitude":null,"nearbyStations":[42,51,56],"location":{"lat":19.419515,"lon":-99.166299},"stationType":"BIKE,TPV"},{"id":125,"name":"125 MORELIA-CIRCULAR DE MORELIA","address":"125 - Morelia-Circular de Morelia","addressNumber":"S\/N","zipCode":"06500","districtCode":"R-N","districtName":"Roma Norte","altitude":null,"nearbyStations":[119,123,127],"location":{"lat":19.424541,"lon":-99.156204},"stationType":"BIKE"},{"id":126,"name":"126 JALAPA-PUEBLA","address":"126 - Jalapa-Puebla","addressNumber":"S\/N","zipCode":"06700","districtCode":"R-N","districtName":"Roma Norte","altitude":null,"nearbyStations":[121,128,129],"location":{"lat":19.422288,"lon":-99.162138},"stationType":"BIKE"},{"id":127,"name":"127 PUEBLA-MERIDA","address":"127 -  Puebla-Merida","addressNumber":"S\/N","zipCode":"06700","districtCode":"R-N","districtName":"Roma Norte","altitude":null,"nearbyStations":[125,128,130],"location":{"lat":19.423318,"lon":-99.15833},"stationType":"BIKE"},{"id":128,"name":"128 ORIZABA-RIO DE JANEIRO","address":"128 - Orizaba-R\u00edo de Janeiro","addressNumber":"S\/N","zipCode":"06500","districtCode":"R-N","districtName":"Roma Norte","altitude":null,"nearbyStations":[121,126,127],"location":{"lat":19.422148,"lon":-99.160645},"stationType":"BIKE,TPV"},{"id":129,"name":"129 TONAL\u00c1-DURANGO","address":"129 - Tonal\u00e1-Durango","addressNumber":"S\/N","zipCode":"06700","districtCode":"R-N","districtName":"Roma Norte","altitude":null,"nearbyStations":[126,128,131],"location":{"lat":19.4206,"lon":-99.163312},"stationType":"BIKE"},{"id":130,"name":"130 M\u00c9RIDA-DURANGO","address":"130 - M\u00e9rida-Durango","addressNumber":"S\/N","zipCode":"06700","districtCode":"R-N","districtName":"Roma Norte","altitude":null,"nearbyStations":[127,132,133],"location":{"lat":19.421576,"lon":-99.158015},"stationType":"BIKE"},{"id":131,"name":"131 COLIMA-JALAPA","address":"131 - Colima-Jalapa","addressNumber":"S\/N","zipCode":"06700","districtCode":"R-N","districtName":"Roma Norte","altitude":null,"nearbyStations":[129,134],"location":{"lat":19.419579,"lon":-99.161314},"stationType":"BIKE"},{"id":132,"name":"132 COLIMA-FRONTERA","address":"132 - Colima-Frontera","addressNumber":"S\/N","zipCode":"06700","districtCode":"R-N","districtName":"Roma Norte","altitude":null,"nearbyStations":[130,133,135],"location":{"lat":19.420667,"lon":-99.15645},"stationType":"BIKE"},{"id":133,"name":"133 COLIMA-MORELIA","address":"133 - Colima-Morelia","addressNumber":"S\/N","zipCode":"06700","districtCode":"R-N","districtName":"Roma Norte","altitude":null,"nearbyStations":[130,132,135],"location":{"lat":19.421138,"lon":-99.154725},"stationType":"BIKE"},{"id":134,"name":"134 \u00c1LVARO OBREG\u00d3N-ORIZABA","address":"134 - \u00c1lvaro Obreg\u00f3n-Orizaba","addressNumber":"S\/N","zipCode":"06700","districtCode":"R-N","districtName":"Roma Norte","altitude":null,"nearbyStations":[131,136,137],"location":{"lat":19.418304,"lon":-99.15956},"stationType":"BIKE,TPV"},{"id":135,"name":"135 \u00c1LVARO OBREG\u00d3N-MORELIA","address":"135 - \u00c1lvaro Obreg\u00f3n-Morelia","addressNumber":"S\/N","zipCode":"06700","districtCode":"R-N","districtName":"Roma Norte","altitude":null,"nearbyStations":[132,133,137],"location":{"lat":19.419225,"lon":-99.155099},"stationType":"BIKE,TPV"},{"id":136,"name":"136 \u00c1LVARO OBREG\u00d3N-TONAL\u00c1","address":"136 - Tonal\u00e1-\u00c1lvaro Obreg\u00f3n","addressNumber":"S\/N","zipCode":"06700","districtCode":"R-N","districtName":"Roma Norte","altitude":null,"nearbyStations":[136],"location":{"lat":19.417715,"lon":-99.162729},"stationType":"BIKE,TPV"},{"id":137,"name":"137 \u00c1LVARO OBREG\u00d3N-M\u00c9RIDA","address":"137 - \u00c1lvaro Obreg\u00f3n-M\u00e9rida","addressNumber":"S\/N","zipCode":"06700","districtCode":"R-N","districtName":"Roma Norte","altitude":null,"nearbyStations":[132,135,138],"location":{"lat":19.418774,"lon":-99.157081},"stationType":"BIKE"},{"id":138,"name":"138 GUANAJUATO-FRONTERA","address":"138 - Guanajuato-Frontera","addressNumber":"S\/N","zipCode":"06700","districtCode":"R-N","districtName":"Roma Norte","altitude":null,"nearbyStations":[135,140,144],"location":{"lat":19.417702,"lon":-99.155313},"stationType":"BIKE"},{"id":139,"name":"E139 TONAL\u00c1-GUANJUATO","address":"139 - Tonal\u00e1-Guanajuato","addressNumber":"S\/N","zipCode":"06700","districtCode":"R-N","districtName":"Roma Norte","altitude":null,"nearbyStations":[33,136,141,155],"location":{"lat":19.416128,"lon":-99.162097},"stationType":"ELECTRIC_BIKE"},{"id":140,"name":"140 M\u00c9RIDA-ZACATECAS","address":"140 - M\u00e9rida-Zacatecas","addressNumber":"S\/N","zipCode":"06700","districtCode":"R-N","districtName":"Roma Norte","altitude":null,"nearbyStations":[138,141,144],"location":{"lat":19.416605,"lon":-99.156853},"stationType":"BIKE"},{"id":141,"name":"141 ZACATECAS-LUIS CABRERA","address":"141 - Zacatecas-Luis Cabrera","addressNumber":"S\/N","zipCode":"06700","districtCode":"R-N","districtName":"Roma Norte","altitude":null,"nearbyStations":[139,140,143],"location":{"lat":19.415905,"lon":-99.15954},"stationType":"BIKE,TPV"},{"id":142,"name":"142 SAN LUIS POTOSI-EJE 2 PTE. MONTERREY","address":"142 - San Luis Potos\u00ed-Eje 2 Pte. Monterrey","addressNumber":"S\/N","zipCode":"06700","districtCode":"R-N","districtName":"Roma Norte","altitude":null,"nearbyStations":[139,145,146],"location":{"lat":19.413232,"lon":-99.164121},"stationType":"BIKE"},{"id":143,"name":"143 C\u00d3RDOBA-SAN LUIS POTOS\u00cd","address":"143 - C\u00f3rdoba-San Luis Potos\u00ed","addressNumber":"S\/N","zipCode":"06700","districtCode":"R-N","districtName":"Roma Norte","altitude":null,"nearbyStations":[141,144,147],"location":{"lat":19.414303,"lon":-99.157542},"stationType":"BIKE"},{"id":144,"name":"144 FRONTERA-SAN LUIS POTOS\u00cd","address":"144 - Frontera-San Luis Potos\u00ed","addressNumber":"S\/N","zipCode":"06700","districtCode":"R-N","districtName":"Roma Norte","altitude":null,"nearbyStations":[140,143,148],"location":{"lat":19.415192,"lon":-99.154837},"stationType":"BIKE"},{"id":145,"name":"145 EJE 2 SUR YUCAT\u00c1N-CHIAPAS","address":"145 - Eje 2 Sur Yucat\u00e1n-Chiapas","addressNumber":"S\/N","zipCode":"06700","districtCode":"R-N","districtName":"Roma Norte","altitude":null,"nearbyStations":[142,147,151],"location":{"lat":19.41286,"lon":-99.160661},"stationType":"BIKE"},{"id":146,"name":"146 COAHUILA-MANZANILLO","address":"146 - Coahuila-Manzanillo","addressNumber":"S\/N","zipCode":"06700","districtCode":"R-N","districtName":"Roma Norte","altitude":null,"nearbyStations":[150,152,153],"location":{"lat":19.410737,"lon":-99.165716},"stationType":"BIKE"},{"id":147,"name":"147 COAHUILA-ORIZABA","address":"147 - Coahuila-Orizaba","addressNumber":"S\/N","zipCode":"06700","districtCode":"R-N","districtName":"Roma Norte","altitude":null,"nearbyStations":[145,149,151],"location":{"lat":19.412182,"lon":-99.158443},"stationType":"BIKE"},{"id":148,"name":"148 COAHUILA-AV.CUAUHTEMOC","address":"148 - Coahuila-Av. Cuauht\u00e9moc","addressNumber":"S\/N","zipCode":"06700","districtCode":"R-N","districtName":"Roma Norte","altitude":null,"nearbyStations":[143,147,149],"location":{"lat":19.412829,"lon":-99.155116},"stationType":"BIKE"},{"id":149,"name":"149 M\u00c9RIDA-ANTONIO ANZA","address":"149 - M\u00e9rida-Antonio Anza","addressNumber":"S\/N","zipCode":"06700","districtCode":"R-N","districtName":"Roma Norte","altitude":null,"nearbyStations":[143,147,148],"location":{"lat":19.41199,"lon":-99.155699},"stationType":"BIKE"},{"id":150,"name":"150 CAMPECHE-MEDELL\u00cdN","address":"150 - Campeche-Medell\u00edn","addressNumber":"S\/N","zipCode":"06760","districtCode":"ROM","districtName":"Roma Sur","altitude":null,"nearbyStations":[146,151,152],"location":{"lat":19.409965,"lon":-99.164292},"stationType":"BIKE"},{"id":151,"name":"151 CAMPECHE-TONAL\u00c1","address":"151 - Campeche-Tonal\u00e1","addressNumber":"S\/N","zipCode":"06760","districtCode":"ROM","districtName":"Roma Sur","altitude":null,"nearbyStations":[145,147,155],"location":{"lat":19.410529,"lon":-99.160873},"stationType":"BIKE"},{"id":152,"name":"152 TLACOTALPAN-CAMPECHE","address":"152 - Tlacotalpan-Campecha","addressNumber":"S\/N","zipCode":"06760","districtCode":"ROM","districtName":"Roma Sur","altitude":null,"nearbyStations":[146,150,157],"location":{"lat":19.409098,"lon":-99.167181},"stationType":"BIKE,TPV"},{"id":153,"name":"153 MANZANILLO-TLAXCALA","address":"153 - Manzanillo-Tlaxcala","addressNumber":"S\/N","zipCode":"06760","districtCode":"ROM","districtName":"Roma Sur","altitude":null,"nearbyStations":[154,157,161],"location":{"lat":19.407468,"lon":-99.165141},"stationType":"BIKE"},{"id":154,"name":"154 TUXPAN-TLAXCALA","address":"154 - Tuxpan-Tlaxcala","addressNumber":"S\/N","zipCode":"06100","districtCode":"ROM","districtName":"Roma Sur","altitude":null,"nearbyStations":[152,153,157],"location":{"lat":19.406683,"lon":-99.167962},"stationType":"BIKE,TPV"},{"id":155,"name":"E155 JALAPA-TLAXCALA","address":"155 - Jalapa-Tlaxcala","addressNumber":"S\/N","zipCode":"06760","districtCode":"ROM","districtName":"Roma Sur","altitude":null,"nearbyStations":[139,147,151,156],"location":{"lat":19.408218,"lon":-99.159911},"stationType":"ELECTRIC_BIKE"},{"id":156,"name":"156 TEPIC-ARIO","address":"156 - Tepic-Ario","addressNumber":"S\/N","zipCode":"06760","districtCode":"ROM","districtName":"Roma Sur","altitude":null,"nearbyStations":[153,155,162],"location":{"lat":19.406982,"lon":-99.162983},"stationType":"BIKE"},{"id":157,"name":"157 TEPIC-TLACOTALPAN","address":"157 - Tepic-Tlacotalpan","addressNumber":"S\/N","zipCode":"06760","districtCode":"ROM","districtName":"Roma Sur","altitude":null,"nearbyStations":[153,154,161],"location":{"lat":19.406236,"lon":-99.166616},"stationType":"BIKE"},{"id":158,"name":"158 HUATABAMPO-EJE 1PTE. CUAUHT\u00c9MOC","address":"158 - Huatabampo- Eje 1 Pte. Av. Cuauht\u00e9moc","addressNumber":"S\/N","zipCode":"06760","districtCode":"ROM","districtName":"Roma Sur","altitude":null,"nearbyStations":[155,159,163],"location":{"lat":19.407447,"lon":-99.155717},"stationType":"BIKE,TPV"},{"id":161,"name":"161 QUINTANA ROO-MANZANILLO","address":"161 - Quintana Roo-Manzanillo","addressNumber":"S\/N","zipCode":"06760","districtCode":"ROM","districtName":"Roma Sur","altitude":null,"nearbyStations":[153,157,162],"location":{"lat":19.405533,"lon":-99.164913},"stationType":"BIKE"},{"id":162,"name":"162 TEHUANTEPEC-MEDELL\u00cdN","address":"162 - Tehuantepec-Medell\u00edn","addressNumber":"S\/N","zipCode":"06760","districtCode":"ROM","districtName":"Roma Sur","altitude":null,"nearbyStations":[156,161,165],"location":{"lat":19.404907,"lon":-99.162485},"stationType":"BIKE"},{"id":163,"name":"163 TOLUCA-BAJ\u00cdO","address":"163 - Toluca-Baj\u00edo","addressNumber":"S\/N","zipCode":"06760","districtCode":"ROM","districtName":"Roma Sur","altitude":null,"nearbyStations":[158,159,165],"location":{"lat":19.405246,"lon":-99.156431},"stationType":"BIKE"},{"id":164,"name":"164 BAJ\u00cdO-TLACOTALPAN","address":"164 - Baj\u00edo-Tlacotalpan","addressNumber":"S\/N","zipCode":"06760","districtCode":"ROM","districtName":"Roma Sur","altitude":null,"nearbyStations":[157,161,162],"location":{"lat":19.403204,"lon":-99.16596},"stationType":"BIKE"},{"id":165,"name":"165 BAJ\u00cdO-EJE 2 PTE. MONTERREY","address":"165 - Baj\u00edo-Eje 2 Pte. Monterrey","addressNumber":"S\/N","zipCode":"06760","districtCode":"ROM","districtName":"Roma Sur","altitude":null,"nearbyStations":[156,162,163],"location":{"lat":19.404268,"lon":-99.160503},"stationType":"BIKE"},{"id":427,"name":"427 AVENIDA M\u00c9XICO-COYOACAN-AV. POPOCATEPETL (EJE ","address":"427 - Avenida M\u00e9xico-Coyoacan-Av. Popocatepetl (Eje","addressNumber":"S\/N","zipCode":"3310","districtCode":"SCA","districtName":"Santa Cruz Atoyac","altitude":null,"nearbyStations":[411,412,426],"location":{"lat":19.365023,"lon":-99.162993},"stationType":"BIKE"},{"id":409,"name":"409 AZORES-DIVISI\u00d3N DEL NORTE","address":"409 - Azores-Divisi\u00f3n Del Norte","addressNumber":"S\/N","zipCode":"3310","districtCode":"SCA","districtName":"Santa Cruz Atoyac","altitude":null,"nearbyStations":[408,410,430],"location":{"lat":19.365102,"lon":-99.155499},"stationType":"BIKE"},{"id":410,"name":"410 PROLONGACI\u00d3N TAJ\u00cdN-PROLONGACI\u00d3N REP\u00daBLICAS","address":"410 - Prolongaci\u00f3n Taj\u00edn-Prolongaci\u00f3n Rep\u00fablicas","addressNumber":"S\/N","zipCode":"3310","districtCode":"SCA","districtName":"Santa Cruz Atoyac","altitude":null,"nearbyStations":[407,408,409],"location":{"lat":19.36564,"lon":-99.158063},"stationType":"BIKE"},{"id":411,"name":"411 PARROQUIA-AVENIDA M\u00c9XICO-COYOACAN","address":"411 - Parroquia-Avenida M\u00e9xico-Coyoacan","addressNumber":"S\/N","zipCode":"3310","districtCode":"SCA","districtName":"Santa Cruz Atoyac","altitude":null,"nearbyStations":[412,425,427],"location":{"lat":19.367864,"lon":-99.163626},"stationType":"BIKE"},{"id":412,"name":"412 PARROQUIA-AVENIDA UNIVERSIDAD","address":"412 - Parroquia-Avenida Universidad","addressNumber":"S\/N","zipCode":"3310","districtCode":"SCA","districtName":"Santa Cruz Atoyac","altitude":null,"nearbyStations":[411,425,426],"location":{"lat":19.3684182,"lon":-99.1654145},"stationType":"BIKE,TPV"},{"id":406,"name":"406 PARROQUIA AV. MEXICO-COYOACAN","address":"406 - Parroquia Av. Mexico-Coyoacan","addressNumber":"S\/N","zipCode":"3310","districtCode":"SCA","districtName":"Santa Cruz Atoyac","altitude":null,"nearbyStations":[402,407,411],"location":{"lat":19.367831,"lon":-99.163261},"stationType":"BIKE"},{"id":429,"name":"429 PIRINEOS-AV. POPOCATEPETL (EJE 8)","address":"429 - Pirineos-Av. Popocatepetl (Eje 8)","addressNumber":"S\/N","zipCode":"3310","districtCode":"SCA","districtName":"Santa Cruz Atoyac","altitude":null,"nearbyStations":[428,430,431],"location":{"lat":19.363071,"lon":-99.158292},"stationType":"BIKE"},{"id":430,"name":"430 TRIPOLI-AV. POPOCATEPETL (EJE 8)","address":"430 - Tripoli-Av. Popocatepetl (Eje 8)","addressNumber":"S\/N","zipCode":"3310","districtCode":"SCA","districtName":"Santa Cruz Atoyac","altitude":null,"nearbyStations":[409,429,431],"location":{"lat":19.362139,"lon":-99.154974},"stationType":"BIKE"},{"id":401,"name":"401 SAN LORENZO-AVENIDA CUAUHTEMOC","address":"401 - San Lorenzo-Avenida Cuauhtemoc","addressNumber":"S\/N","zipCode":"3310","districtCode":"SCA","districtName":"Santa Cruz Atoyac","altitude":null,"nearbyStations":[400,402,403],"location":{"lat":19.372147,"lon":-99.16158},"stationType":"BIKE"},{"id":402,"name":"402 UXMAL-MUNICIPIO LIBRE","address":"402 - Uxmal-Municipio Libre","addressNumber":"S\/N","zipCode":"3310","districtCode":"SCA","districtName":"Santa Cruz Atoyac","altitude":null,"nearbyStations":[401,403,405],"location":{"lat":19.3709452,"lon":-99.1587223},"stationType":"BIKE"},{"id":403,"name":"403 UXMAL-MUNICIPIO LIBRE","address":"403 - Uxmal-Municipio Libre","addressNumber":"S\/N","zipCode":"3310","districtCode":"SCA","districtName":"Santa Cruz Atoyac","altitude":null,"nearbyStations":[401,402,405],"location":{"lat":19.371371,"lon":-99.158639},"stationType":"BIKE"},{"id":184,"name":"184 GRAL G\u00d3MEZ PEDRAZA-GOBERNADOR TIBURCIO M","address":"184 - General G\u00f3mez Pedraza-Gobernador Tiburcio Montiel","addressNumber":"S\/N","zipCode":"11850","districtCode":"SMC","districtName":"San Miguel Chapultepec ","altitude":null,"nearbyStations":[185,186,187],"location":{"lat":19.41479,"lon":-99.18508},"stationType":"BIKE,TPV"},{"id":185,"name":"185 GRAL ANTONIO L\u00c9ON-GRAL PEDRO A DE LOS S.","address":"185 - General Antonio L\u00e9on-General Pedro Antonio de los Santos","addressNumber":"S\/N","zipCode":"11850","districtCode":"SMC","districtName":"San Miguel Chapultepec ","altitude":null,"nearbyStations":[176,187,190],"location":{"lat":19.4128,"lon":-99.1828},"stationType":"BIKE"},{"id":186,"name":"186 GREGORIO V GELATI-FRANCISCO MOLINOS DEL C","address":"186 - Gregorio V. Gelati-Francisco Molinos del C.","addressNumber":"S\/N","zipCode":"11850","districtCode":"SMC","districtName":"San Miguel Chapultepec ","altitude":null,"nearbyStations":[187,188,189],"location":{"lat":19.4124291,"lon":-99.1885117},"stationType":"BIKE"},{"id":187,"name":"187 GENERAL CANO-GOBERNADOR GREGORIO V GELATI","address":"187 - Genral Cano-Gobernador Gregorio V. Gelati","addressNumber":"S\/N","zipCode":"11850","districtCode":"SMC","districtName":"San Miguel Chapultepec ","altitude":null,"nearbyStations":[176,189,190],"location":{"lat":19.41123,"lon":-99.18551},"stationType":"BIKE"},{"id":188,"name":"188 GDOR MELCHOR M\u00daZQUIZ-GDOR IGNACIO ESTEVA ","address":"188 - Gobernador Melchor M\u00fazquiz-Gobernador Ignacio Esteva","addressNumber":"S\/N","zipCode":"11850","districtCode":"SMC","districtName":"San Miguel Chapultepec ","altitude":null,"nearbyStations":[186,187,189],"location":{"lat":19.41171,"lon":-99.19014},"stationType":"BIKE,TPV"},{"id":189,"name":"189 GDOR RAFAEL REBOLLAR-GDOR JOS\u00c9 CEBALLOS","address":"189 - Gobernador Rafael Rebollar-Gobernador Jos\u00e9 Ceballos","addressNumber":"S\/N","zipCode":"11850","districtCode":"SMC","districtName":"San Miguel Chapultepec ","altitude":null,"nearbyStations":[186,187,188],"location":{"lat":19.41004,"lon":-99.18798},"stationType":"BIKE"},{"id":190,"name":"E190 GDOR IGNACIO ESTEVA-MTRO JOS\u00c9 VASCONCELOS","address":"190 - Gobernador Ignacio Esteva-Maestro Jos\u00e9 Vasconcelos","addressNumber":"S\/N","zipCode":"11850","districtCode":"SMC","districtName":"San Miguel Chapultepec ","altitude":null,"nearbyStations":[33,187,189,449],"location":{"lat":19.409569,"lon":-99.183833},"stationType":"ELECTRIC_BIKE"},{"id":191,"name":"191 GDOR RAFAEL REBOLLAR-GDOR VICENTE EGUIA","address":"191 - Gobernador Rafael Rebollar-Gobernador Vicente Eguia","addressNumber":"S\/N","zipCode":"11850","districtCode":"SMC","districtName":"San Miguel Chapultepec ","altitude":null,"nearbyStations":[176,189,190],"location":{"lat":19.4079,"lon":-99.18795},"stationType":"BIKE"},{"id":258,"name":"258 CIRCUITO INTERIOR-JUAN ESCUTIA ","address":"258 - Circuito Interior-Juan Escutia","addressNumber":"S\/N","zipCode":"11850","districtCode":"SMC","districtName":"San Miguel Chapultepec ","altitude":null,"nearbyStations":[36,49,53],"location":{"lat":19.4167,"lon":-99.1791},"stationType":"BIKE"},{"id":352,"name":"352 TINTORETO-GIORGINE","address":"352 - Tintoreto-Giorgine","addressNumber":"S\/N","zipCode":"3700","districtCode":"SMN","districtName":"Santa Mar\u00eda Nonoalco","altitude":null,"nearbyStations":[351,364,365],"location":{"lat":19.384114,"lon":-99.185447},"stationType":"BIKE,TPV"},{"id":364,"name":"364 BOTICHELLI-CDA. DE GIORGONE","address":"364 - Botichelli-Cda. De Giorgone","addressNumber":"S\/N","zipCode":"3700","districtCode":"SMN","districtName":"Santa Mar\u00eda Nonoalco","altitude":null,"nearbyStations":[351,352,365],"location":{"lat":19.383063,"lon":-99.185858},"stationType":"BIKE"},{"id":365,"name":"365 HOLBEIN-AVENIDA REVOLUCI\u00d3N","address":"365 - Holbein-Avenida Revoluci\u00f3n","addressNumber":"S\/N","zipCode":"3700","districtCode":"SMN","districtName":"Santa Mar\u00eda Nonoalco","altitude":null,"nearbyStations":[352,363,364],"location":{"lat":19.381117,"lon":-99.186687},"stationType":"BIKE"},{"id":351,"name":"351 CALLE 27-AVENIDA REVOLUCI\u00d3N","address":"351 - Calle 27-Avenida Revoluci\u00f3n","addressNumber":"S\/N","zipCode":"3800","districtCode":"SPP","districtName":"San Pedro de los Pinos","altitude":null,"nearbyStations":[332,352,364],"location":{"lat":19.385751,"lon":-99.186297},"stationType":"BIKE"},{"id":328,"name":"328 AVENIDA 1-CALLE 7","address":"328 - Avenida 1-Calle 7","addressNumber":"S\/N","zipCode":"3800","districtCode":"SPP","districtName":"San Pedro de los Pinos","altitude":null,"nearbyStations":[311,312,329],"location":{"lat":19.392586,"lon":-99.184742},"stationType":"BIKE"},{"id":329,"name":"329 CALLE 13-AVENIDA 1","address":"329 - Calle 13-Avenida 1","addressNumber":"S\/N","zipCode":"3800","districtCode":"SPP","districtName":"San Pedro de los Pinos","altitude":null,"nearbyStations":[312,328,330],"location":{"lat":19.390306,"lon":-99.184812},"stationType":"BIKE"},{"id":330,"name":"330 CALLE 15-AVENIDA PATRIOTISMO","address":"330 - Calle 15-Avenida Patriotismo","addressNumber":"S\/N","zipCode":"3800","districtCode":"SPP","districtName":"San Pedro de los Pinos","altitude":null,"nearbyStations":[329,331,332],"location":{"lat":19.389358,"lon":-99.182606},"stationType":"BIKE"},{"id":331,"name":"331 AVENIDA 2-CALLE 17","address":"331 - Avenida 2-Calle 17","addressNumber":"S\/N","zipCode":"3800","districtCode":"SPP","districtName":"San Pedro de los Pinos","altitude":null,"nearbyStations":[329,330,332],"location":{"lat":19.388547,"lon":-99.183971},"stationType":"BIKE"},{"id":332,"name":"332 SUR DE CALLE 27-AVENIDA 3","address":"332 - Sur De Calle 27-Avenida 3","addressNumber":"S\/N","zipCode":"3800","districtCode":"SPP","districtName":"San Pedro de los Pinos","altitude":null,"nearbyStations":[330,331,333],"location":{"lat":19.385508,"lon":-99.183809},"stationType":"BIKE"},{"id":288,"name":"288 11 DE ABRIL-AVENIDA 2","address":"288 - 11 De Abril-Avenida 2","addressNumber":"S\/N","zipCode":"3800","districtCode":"SPP","districtName":"San Pedro de los Pinos","altitude":null,"nearbyStations":[287,310,311],"location":{"lat":19.396333,"lon":-99.183575},"stationType":"BIKE"},{"id":310,"name":"310 CALLE 1-AV. PATRIOTISMO","address":"310 - Calle 1-Av. Patriotismo","addressNumber":"S\/N","zipCode":"3800","districtCode":"SPP","districtName":"San Pedro de los Pinos","altitude":null,"nearbyStations":[309,311,312],"location":{"lat":19.395319,"lon":-99.181733},"stationType":"BIKE"},{"id":311,"name":"311 CALLE 5-AVENIDA REVOLUCI\u00d3N","address":"311 - Calle 5-Avenida Revoluci\u00f3n","addressNumber":"S\/N","zipCode":"3800","districtCode":"SPP","districtName":"San Pedro de los Pinos","altitude":null,"nearbyStations":[310,312,328],"location":{"lat":19.393665,"lon":-99.185391},"stationType":"BIKE"},{"id":312,"name":"312 AVENIDA 2-CALLE 7","address":"312 - Avenida 2-Calle 7","addressNumber":"S\/N","zipCode":"3800","districtCode":"SPP","districtName":"San Pedro de los Pinos","altitude":null,"nearbyStations":[310,311,328],"location":{"lat":19.392634,"lon":-99.183737},"stationType":"BIKE,TPV"},{"id":263,"name":"263 SADI CARNOT-G\u00d3MEZ FARIAS ","address":"263 - Sadi Carnot - G\u00f3mez Farias","addressNumber":"S\/N","zipCode":"06470","districtCode":"S-R","districtName":"San Rafael","altitude":null,"nearbyStations":[85,86,256],"location":{"lat":19.436274,"lon":-99.158425},"stationType":"BIKE,TPV"},{"id":160,"name":"E160 ALFONSO HERRERA-GABINO BARRERA","address":"160 - Alfonzo Herrera-Gabino Barrera","addressNumber":"S\/N","zipCode":"06470","districtCode":"S-R","districtName":"San Rafael","altitude":null,"nearbyStations":[103,174,257],"location":{"lat":19.44025,"lon":-99.16346},"stationType":"ELECTRIC_BIKE"},{"id":254,"name":"254 ALFONSO HERRERA-MIGUEL SHULTZ ","address":"254 - Alfonso Herrera-Miguel Shultz","addressNumber":"S\/N","zipCode":"06470","districtCode":"S-R","districtName":"San Rafael","altitude":null,"nearbyStations":[160,174,256],"location":{"lat":19.43935,"lon":-99.16007},"stationType":"BIKE"},{"id":255,"name":"255 JOSE ROSAS MORENO-GUILLERMO PRIETO ","address":"255-Jose Rosas Moreno-Guillermo Prieto","addressNumber":"S\/N","zipCode":"06470","districtCode":"S-R","districtName":"San Rafael","altitude":null,"nearbyStations":[160,183,257],"location":{"lat":19.437159,"lon":-99.161808},"stationType":"BIKE"},{"id":256,"name":"256 G\u00d3MEZ FAR\u00cdAS-SADI CARNOT ","address":"256 - G\u00f3mez Far\u00edas Sadi Carnot","addressNumber":"S\/N","zipCode":"06470","districtCode":"S-R","districtName":"San Rafael","altitude":null,"nearbyStations":[254,259],"location":{"lat":19.4372,"lon":-99.15816},"stationType":"BIKE"},{"id":183,"name":"183 GABINO BARRERA-GUILLERMO PRIETO","address":"183 - Gabino Barrera-Guillermo Prieto","addressNumber":"S\/N","zipCode":"06470","districtCode":"S-R","districtName":"San Rafael","altitude":null,"nearbyStations":[160,174,255],"location":{"lat":19.43767,"lon":-99.16402},"stationType":"BIKE"},{"id":174,"name":"174 JOAQU\u00cdN GARCIA-IGNACIO MANUEL ALTAMIRANO","address":"174 - Joaqu\u00edn Garcia-Ignacio Manuel Altamirano","addressNumber":"S\/N","zipCode":"06470","districtCode":"S-R","districtName":"San Rafael","altitude":null,"nearbyStations":[160,183,254],"location":{"lat":19.44111,"lon":-99.16164},"stationType":"BIKE,TPV"},{"id":111,"name":"111 GUILLERMO PRIETO-JOAQU\u00cdN VEL\u00c1ZQUEZ DE LE\u00d3N","address":"111 GUILLERMO PRIETO-JOAQU\u00cdN VEL\u00c1ZQUEZ DE LE\u00d3N","addressNumber":"S\/N","zipCode":"06470","districtCode":"S-R","districtName":"San Rafael","altitude":null,"nearbyStations":[103,160,183],"location":{"lat":19.4382369,"lon":-99.1659465},"stationType":"BIKE"},{"id":103,"name":"103 JOAQU\u00cdN VEL\u00c1ZQUEZ DE LE\u00d3N-GARC\u00cdA ICAZBALCETA","address":"103 JOAQU\u00cdN VEL\u00c1ZQUEZ DE LE\u00d3N-GARC\u00cdA ICAZBALCETA","addressNumber":"s\/n","zipCode":"06470","districtCode":"S-R","districtName":"San Rafael","altitude":null,"nearbyStations":[103],"location":{"lat":19.441669,"lon":-99.165217},"stationType":"BIKE"},{"id":85,"name":"85 ROSAS MORENO-SULLIVAN","address":"085 - Rosas Moreno - Sullivan","addressNumber":"S\/N","zipCode":"06470","districtCode":"S-R","districtName":"San Rafael","altitude":null,"nearbyStations":[1,3,12],"location":{"lat":19.43425,"lon":-99.162508},"stationType":"BIKE"},{"id":86,"name":"86 SULLIVAN-INSURGENTES","address":"086 - Sullivan-Insurgentes","addressNumber":"S\/N","zipCode":"06470","districtCode":"S-R","districtName":"San Rafael","altitude":null,"nearbyStations":[12,20],"location":{"lat":19.432378,"lon":-99.159077},"stationType":"BIKE,TPV"},{"id":41,"name":"41 REFORMA-AV. DE LA REPUBLICA","address":"041 - Reforma - Av. de la Rep\u00fablica","addressNumber":"S\/N","zipCode":"06700","districtCode":"TAB","districtName":"Tabacalera","altitude":null,"nearbyStations":[29],"location":{"lat":19.435637,"lon":-99.150137},"stationType":"BIKE,TPV"},{"id":10,"name":"10 REFORMA-RAMIREZ","address":"010 - Reforma - Ram\u00edrez","addressNumber":"S\/N","zipCode":"06500","districtCode":"TAB","districtName":"Tabacalera","altitude":null,"nearbyStations":[26],"location":{"lat":19.433321,"lon":-99.154752},"stationType":"BIKE,TPV"},{"id":270,"name":"270 DE LA REPUBLICA-PONCIANO ARRIAGA ","address":"270 - De la Republica-Ponciano Arriaga","addressNumber":"S\/N","zipCode":"06030","districtCode":"TAB","districtName":"Tabacalera","altitude":null,"nearbyStations":[270],"location":{"lat":19.43676,"lon":-99.15387},"stationType":"BIKE,TPV"},{"id":259,"name":"259 T\u00d3MAS ALVA EDISON-PONCIANO ARRIAGA ","address":"259 - T\u00f3mas Alva Edison-Ponciano Arriaga","addressNumber":"S\/N","zipCode":"06030","districtCode":"TAB","districtName":"Tabacalera","altitude":null,"nearbyStations":[256],"location":{"lat":19.43757,"lon":-99.15468},"stationType":"BIKE"},{"id":450,"name":"450 RAMOS ARIZPE-PUENTE DE ALVARADO","address":"450 RAMOS ARIZPE-PUENTE DE ALVARADO","addressNumber":"S\/N","zipCode":"06350","districtCode":"TAB","districtName":"Tabacalera","altitude":null,"nearbyStations":[450],"location":{"lat":19.43836,"lon":-99.152226},"stationType":"BIKE"},{"id":392,"name":"392 PATRICIO SANZ-FELIX CUEVAS","address":"392 - Patricio Sanz-Felix Cuevas","addressNumber":"S\/N","zipCode":"3200","districtCode":"TLA","districtName":"Tlacoquemecatl","altitude":null,"nearbyStations":[380,393,394],"location":{"lat":19.3730067,"lon":-99.1747749},"stationType":"BIKE"},{"id":389,"name":"389 SANTANDER-FELIX CUEVAS","address":"389 - Santander-Felix Cuevas","addressNumber":"S\/N","zipCode":"3920","districtCode":"TLA","districtName":"Tlacoquemecatl","altitude":null,"nearbyStations":[388,390,391],"location":{"lat":19.373528,"lon":-99.179356},"stationType":"BIKE"},{"id":390,"name":"390 OSO-FELIX CUEVAS","address":"390 - Oso-Felix Cuevas","addressNumber":"S\/N","zipCode":"3104","districtCode":"TLA","districtName":"Tlacoquemecatl","altitude":null,"nearbyStations":[389,391,416],"location":{"lat":19.373228,"lon":-99.17826},"stationType":"BIKE,TPV"},{"id":370,"name":"370 TLACOQUEMECATL-AV. INSURGENTES","address":"370 - Tlacoquemecatl-Av. Insurgentes","addressNumber":"S\/N","zipCode":"3200","districtCode":"TLA","districtName":"Tlacoquemecatl","altitude":null,"nearbyStations":[361,369,371],"location":{"lat":19.378818,"lon":-99.177054},"stationType":"BIKE"},{"id":371,"name":"371 TLACOQUEMECATL-CAPULIN","address":"371 - Tlacoquemecatl-Capulin","addressNumber":"S\/N","zipCode":"3200","districtCode":"TLA","districtName":"Tlacoquemecatl","altitude":null,"nearbyStations":[361,369,370],"location":{"lat":19.378542,"lon":-99.174328},"stationType":"BIKE"},{"id":380,"name":"380 MORAS-SAN LORENZO","address":"380 - Moras-San Lorenzo","addressNumber":"S\/N","zipCode":"3200","districtCode":"TLA","districtName":"Tlacoquemecatl","altitude":null,"nearbyStations":[392,393,394],"location":{"lat":19.374876,"lon":-99.173512},"stationType":"BIKE"},{"id":440,"name":"440 REAL DE MAYORAZGO-PUENTE XOCO","address":"440 - Real De Mayorazgo-Puente Xoco","addressNumber":"S\/N","zipCode":"3330","districtCode":"XOC","districtName":"Xoco","altitude":null,"nearbyStations":[433,439,441],"location":{"lat":19.36065,"lon":-99.168669},"stationType":"BIKE"},{"id":441,"name":"441 PUENTE XOCO-REAL DE MAYORAZGO","address":"441 - Puente Xoco-Real De Mayorazgo","addressNumber":"S\/N","zipCode":"3330","districtCode":"XOC","districtName":"Xoco","altitude":null,"nearbyStations":[433,442],"location":{"lat":19.361215,"lon":-99.167527},"stationType":"BIKE"},{"id":442,"name":"442 REAL DE MAYORAZGO-AVENIDA M\u00c9XICO-COYOACAN","address":"442 - Real De Mayorazgo-Avenida M\u00e9xico-Coyoacan","addressNumber":"S\/N","zipCode":"3330","districtCode":"XOC","districtName":"Xoco","altitude":null,"nearbyStations":[432,443,444],"location":{"lat":19.359905,"lon":-99.1653},"stationType":"BIKE,TPV"},{"id":426,"name":"426 CERRADA DE POPOCATEPETL-AV. POPOCATEPETL EJE 8","address":"426 - Cerrada De Popocatepetl-Av. Popocatepetl Eje8","addressNumber":"S\/N","zipCode":"3330","districtCode":"XOC","districtName":"Xoco","altitude":null,"nearbyStations":[411,412,425],"location":{"lat":19.365519,"lon":-99.166017},"stationType":"BIKE"}]}